[
  {:name=>"洛德城堡", :description=>"「台北市北投運動中心・洛德城堡」寬敞的園區，以城堡、玩具、公仔等多樣化充滿童趣的造景打造完整的夢幻樂園。包羅萬象的園區空間，包含了夏季戶外樂園、冬季戶外樂園、小獅城堡、體適能區、水適能區等完善的運動休閒環境，更提供露臺餐廳和戶外野餐，還有完善的課程～是大人小孩假日出遊的好去處。", :address=>"台北市中正區汀洲路三段160巷底", :image=>"http://img3.okgo.tw/titlepic/b3772_1.jpg", :region=>"中正區", :lat=>25.0122646, :lng=>121.5332374, :categories=>["establishment", "food", "gym", "health", "point_of_interest", "restaurant"]}, 
  {:name=>"臺北國際藝術村", :description=>"2001年，台北市政府文化局在原養護工程處辦公室舊址成立了「台北國際藝術村」，將一棟閒置的四層樓舊建築重新規劃為藝術村，成為藝術家創作與居住的空間。 藝術村一樓設有展演廳和音樂酒吧，晚上有一系列以爵士樂為主的現場音樂表演活動可以欣賞；二、三樓是十三間藝術家創作與生活的工作室和居住空間；頂樓則設置了駐村藝術家的交誼廳及戶外展演空間。每年在春、秋二季，藝術家將開放工作室讓民眾參觀。讓社區與藝術充分結合。", :address=>"台北市中正區北平東路7號(捷運板南線 善導寺站一號出口，警政署後方 )", :image=>"http://img3.okgo.tw/titlepic/b3674_3.jpg", :region=>"中正區", :lat=>25.0450001, :lng=>121.52317, :categories=>["establishment", "point_of_interest", "transit_station"]}, 
  {:name=>"中正紀念堂", :description=>"先總統　蔣介石先生，名「中正」，於中華民國64年4月5日崩逝，為紀念蔣介石先生，政府在民國65年籌建中正紀念堂，主體面積約一萬五千平方公尺，堂高70公尺，以寶藍琉璃瓦頂綴八角形的塔頂，而外觀為雪白色大理石作為堂體，堂內規劃有文物展視室、中央通廊、中正藝廊、中正紀念圖書館、蔣公紀念室，兩側分別為廡殿頂的國家戲劇院與歇山頂的國家音樂廳，而面臨中山南路的「大中至正門」正牌樓，高30公尺，寬80公尺，側牌樓兩座，分別為「大忠門」及「大孝門」位於紀念堂南北兩側，各高13.8公尺，寬19.7公尺，在愛國東路者，為大孝門；在信義路者，為大忠門。為多元化的紀念堂，目前已讓人文、建築及科技作最完美的集合，成為台北市民休閒交流的重要場所。", :address=>"中正區中山南路21號", :image=>"http://img3.okgo.tw/titlepic/b251_9.jpg", :region=>"中正區", :lat=>25.0367564, :lng=>121.519047, :categories=>["street_address"]}, 
  {:name=>"水源市場", :description=>"水源市場位於台北市的中正區，鄰近捷運公館站一號出口，早期因為位於水道町（又稱水源地）得名。一、二樓目前做為市場使用，結合週邊的流動攤販，是公館商圈的重要鬧區。 水源大樓因管線外露、建築老舊，曾於2010年進行整修，建築外觀是由以色列藝術家Yaacov Agam，精心創作出大型公共藝術–水源之心，以繽紛的幾何圖形組合而成，能以左、正、右三種不同的角度，欣賞出水波粼粼的不同風貌，非常特別。", :address=>"台北市中正區羅斯福路四段92號", :image=>"http://img3.okgo.tw/titlepic/b3608_1.jpg", :region=>"中正區", :lat=>25.0136509, :lng=>121.5349726, :categories=>["street_address"]}, 
  {:name=>"台北植物園", :description=>"台北植物園隸屬行政院農業委員會林業試驗所，佔地約8公頃，日治時期(西元1896年)，日人就建立了當時面積不到5公頃的台北苗圃，一直到了西元1921年，由林業試驗場接管後，才正式改名為今日的台北植物園。在園區的您可以看到各種不同的植物，而園區的用心，更是隨意可見，舉凡是為植物設置了解說看板、安排志工為民眾解說、將園內的植物分為不同的參觀主題、規劃導覽步道，在在都是為了提供民眾一個優質的休憩並極富教育的場所，除此之外，園區還可以在數百株棕櫚科植物的樹幹上，看到二次世界大戰的砲彈痕跡，以及清朝布政使司衙門的官式建築，感受歷史曾留下的足跡。今日的植物園不但是一處休憩教育的好場所，更成為台北市市民運動的好地方，只要大家一起共同來維護植物園，那麼這塊寶地就能永久持續的留給我們的下一代。", :address=>"中正區南海路53號 ", :image=>"http://img3.okgo.tw/titlepic/b252_10.jpg", :region=>"中正區", :lat=>25.031211, :lng=>121.510191, :categories=>["street_address"]}, 
  {:name=>"華山1914文創園區", :description=>"華山1914文創園區最早為1914年時的芳釀株式會社造酒廠，後為日治政府改制收買成為台灣總督府專賣局台北酒工廠，而光復後由政府接收，改名為台灣省專賣局台北酒工廠，而後歷經一連串的改制與託管經營等，在2004年封園整修，結合舊廠區與公園區，打造出「華山1914文化創業產業園區」，並在2005年重新開園。 華山1914文創園區結合了戶外藝文表演與室內展演，提供給藝文界、非營利團體與個人使用的創作場所，以藝文為主，規劃有多元多館室、排練展演空間、華山部落格、藝文資訊站、圖書資料教室、親子園地等，周邊更有廣闊的綠地空間，園區內也有多間餐廳、店舖、藝廊等商業設施，目前至今已舉辦多次藝文展演活動，園區內的舊建築物翻新、裝置藝術，吸引民眾前來參觀、拍照。", :address=>"台北市中正區八德路一段1號", :image=>"http://img3.okgo.tw/titlepic/b4079_1.jpg", :region=>"中正區", :lat=>25.0441499, :lng=>121.5294408, :categories=>["street_address"]}, 
  {:name=>"國立歷史博物館", :description=>"國立歷史博物館位在南海路的植物園內，外觀為中國式宮殿建築，設於民國四十四年，館內收藏眾多華夏文物及台灣文物，包括新石器時代彩陶、青銅器、陶器、石雕、文獻及字畫等，並不定期舉辦各類型的特展，具有濃厚的藝術文化氣息。館中並設有忘言軒和挹翠樓餐飲區供應民眾茶點飲品，還可在荷風閣休憩區中眺望植物園的優美景致。", :address=>"台北市南海路49號", :image=>"http://img3.okgo.tw/titlepic/b128_2.jpg", :region=>"中正區", :lat=>25.031454, :lng=>121.511227, :categories=>["street_address"]}, 
  {:name=>"自來水博物館", :description=>"自來水博物館建於西元1908年，至今已有一百餘年的歷史，博物館外觀為巴洛克式風格，左右對稱的建築格式增添立體感，牆面上佈滿了典雅的雕刻，相當具有異國風情，於民國八十六年時經評定為國家三級古蹟。自來水博物館規劃有多個主題區域，展示自來水廠中的設備，包括有抽水機組設備、避雷器、抽氣泵浦、配電變壓器及馬達等專業設備，此外還有時間廊展示區及影視媒體放映室。", :address=>"中正區思源街1號", :image=>"http://img3.okgo.tw/titlepic/b130_1.jpg", :region=>"中正區", :lat=>25.0134702, :lng=>121.5304737, :categories=>["street_address"]}, 
  {:name=>"國立台灣博物館", :description=>"國立台灣博物館是臺灣歷史最悠久的博物館，於日明治四十一年(西元1908年)成立，當時稱為「臺灣總督府民政部殖產局附屬博物館」，國民政府來臺後，更名為「臺灣省立博物館」，博物館外觀造型採希臘復古樣式，館內設有五個研究組分別為人類學、地學、動物學、植物學及推廣組，並且也經常提供多元化的活動，讓民眾認識台灣珍貴的文化及生物資源，進而更愛習台灣這塊土地。", :address=>"中正區襄陽路2號", :image=>"http://img3.okgo.tw/titlepic/b253_1.jpg", :region=>"中正區", :lat=>25.042902, :lng=>121.51503, :categories=>["street_address"]}, 
  {:name=>"國家文創禮品館（原中華工藝館）", :description=>"中華工藝館為財團法人台灣手工業推廣中心附屬單位，為目前台灣規模最大的民間藝品展示館，館內展售藝品大致可分為高級藝術家具、珠寶飾品、家庭陳飾品及一般禮品，包括有琉璃水晶、竹木藝品、原住民工藝品、唐三彩瓷器、台灣玉器與特色皮雕等四萬多件藝品，並提供外幣兌換、出口及報關、貨品包裝與郵包寄送等服務，提供國外的觀光客便捷的服務。", :address=>"台北市徐州路１號", :image=>"http://img3.okgo.tw/titlepic/b132_1.jpg", :region=>"中正區", :lat=>25.0419501, :lng=>121.5190285, :categories=>["street_address"]}, 
  {:name=>"郵政博物館", :description=>"郵政博物館成立於1965年，早期館社位置在新店的郵政總局舊辦公室，至1984年才遷館到現在的地址，郵政博物館為了讓民眾能更認識郵政業務，在館內2、3樓「歷史之部」展示從秦朝時代至今日的郵務機器演變過程，4樓「業務之部」介紹郵政服務，5樓「集郵之部」展示八萬多枚郵票，6樓為特展區，7樓為圖書館，收藏了一萬多冊的郵政圖書，歡迎大家一同來參訪這棟郵務世界。", :address=>"中正區重慶南路2段45號", :image=>"http://img3.okgo.tw/titlepic/b250_1.jpg", :region=>"中正區", :lat=>25.0315513, :lng=>121.5147551, :categories=>["street_address"]}, 
  {:name=>"自來水園區", :description=>"「自來水園區」位於台大公館商圈附近，佔地面積約有20公頃，為台北自來水的發源地。自來水園區內除自來水博物館之外，還有公館水岸廣場、水鄉庭園、生態景觀步道及水源地苗圃等區域，民眾可到此戲水、健行親近大自然，並進一步了解自來水廠的演進歷史及流程。 園區內除了水源相關場館外，還有佔地約有5公頃的小觀音山，保存了原生闊葉林相生態可供探索，周邊還緊鄰「寶藏巖國際藝術村」、「客家文化主題公園」及「河濱自行車道」，提供您旅遊的多元選擇。", :address=>"臺北市中正區思源街1號 ", :image=>"http://img3.okgo.tw/titlepic/b3547_1.jpg", :region=>"中正區", :lat=>25.0134702, :lng=>121.5304737, :categories=>["street_address"]}, 
  {:name=>"東和禪寺鐘樓", :description=>"早期的東和禪寺稱為曹洞宗大本山別院，在1908年由日本來的高僧所建造，設計人則為入江善太郎，1916年為供僧侶與齋友的子弟就讀，附設佛教學校，西元1916年，改名為私立台北中學，而後又改名為泰北中學，1930年位於大殿之前建造高聳的鐘樓目前仍持續保存著。", :address=>"台北市中正區仁愛路.林森南路口 ", :image=>"http://img3.okgo.tw/titlepic/b255_1.jpg", :region=>"中正區", :lat=>25.0387562, :lng=>121.5216334, :categories=>["intersection"]}, 
  {:name=>"二二八和平公園", :description=>"台北二二八和平公園建於清光緒二十五年(西元1899年)，是台北市創建最早的公園，原名為台北公園，又稱為新公園。民國八十四年二二八紀念碑於台北公園中揭幕，並將公園易名為二二八和平公園，紀念這段群族對立的嚴重事件，悼念於這場衝突中受害的民眾。公園內設有多項古物，包括清朝時所製的老火車頭、急公好義坊、黃氏節孝坊及碑林等，也設有鯉魚池、日晷儀、杏壇、和平雕像及和平鐘等景致，園區草木扶疏綠意盎然，東南側設有二二八紀念館，歷經百年風華的二二八公園相當具有歷史意義，是民眾假日休閒的好去處。", :address=>"台北市凱達格蘭大道3號", :image=>"http://img3.okgo.tw/titlepic/b436_6.jpg", :region=>"中正區", :lat=>25.0403631, :lng=>121.515469, :categories=>["street_address"]}, 
  {:name=>"水資源教育館", :description=>"水資源教育館位於自來水園區之內，鄰近公館捷運站，已於民國103年11月正式對外開放，目前暫時採取免費入館的方式開放民眾參觀體驗，但因參觀需搭配闖關遊戲，有人數限制，建議民眾事先預約。 館內展區豐富多元，設有主題看板展示區、雨水利用模組、節水展示區、多媒體互動展示及親子遊憩區等主題區，採用寓教於樂的方式帶領參觀民眾了解水資源的珍貴與奧秘，再加上3D電影劇場體驗，帶來更逼真的感官體驗，讓大小朋友皆玩得不亦樂乎。", :address=>"臺北市中正區思源街1號 ", :image=>"http://img3.okgo.tw/titlepic/b3609_1.jpg", :region=>"中正區", :lat=>25.0134702, :lng=>121.5304737, :categories=>["street_address"]}, 
  {:name=>"古亭河濱公園", :description=>"「古亭河濱公園」位於永福橋至中正橋之間，可騎乘單車從思源街沿自來水博物館方向騎到底進入園區，斜坡道上種植灌木排列出「古亭河濱公園」別具特色。「古亭河濱公園」內設置許多「愛」為主題的裝置藝術，為免費的婚紗主題公園，吸引許多情侶來此取景拍攝婚紗。永福橋下設有攀岩練習場與兒童遊樂設施，適合大小朋友來此嬉戲遊玩，冬季這裡有整片的波斯菊花海綻放，讓許多人駐足欣賞。公園內設有籃球場、溜冰場、網球場、羽球場、攀岩設施以及涼亭休憩區等，自行車道燈光規劃也十分完善，是車友夜騎的好地點。", :address=>"台北市中正區永福橋與水源路一帶", :image=>"http://img3.okgo.tw/titlepic/b3760_1.jpg", :region=>"中正區", :lat=>25.0107609, :lng=>121.5272559, :categories=>["establishment", "point_of_interest", "route"]}, 
  {:name=>"台北市成功高中昆蟲博物館", :description=>"成功高中昆蟲博物館於民國60年1月成立，早期由陳維壽老師所收藏的昆蟲標本與資料為基礎，蛻變成今天的研究保護臺灣蝴蝶資源中心，目前標本總數約三萬件，並也提供豐富的生物資源作為國中小學教學用。", :address=>"台北市濟南路一段71號", :image=>"http://img3.okgo.tw/titlepic/b256_1.jpg", :region=>"中正區", :lat=>25.0423335, :lng=>121.5236872, :categories=>["street_address"]}, 
  {:name=>"台灣藝術教育館", :description=>"位在植物園中的台灣藝術教育館設於民國四十五年，隸屬於教育部，為扎下藝術的根基、推廣藝術文化而設。藝術教育館大致可分為中型演藝廳、南海學園館本部藝廳與中正藝廊三個部份，館中將不定期舉辦攝影展與書畫展等，以及音樂演奏、舞蹈及戲劇等演出，也經常舉行與藝術相關的專題講座及活動，培養民眾對於藝術層面的認知及欣賞。", :address=>"台北市中正區南海路47號", :image=>"http://img3.okgo.tw/titlepic/b2406_1.jpg", :region=>"中正區", :lat=>25.0317407, :lng=>121.5118945, :categories=>["street_address"]}, 
  {:name=>"國史館", :description=>"國史館位在新北市新店區，隸屬於總統府，肇始於民國元年三月，在中國國民黨歷經北伐、對日抗戰、共匪叛亂及遷台等事件後，　先總統蔣公於民國四十六年六月恢復國史館建制，主要職掌修纂國史及典藏國家史料文獻，自遷台復館至今已編印八十餘種約一千餘冊的史籍，擁有珍貴齊全的國家史料資訊，可分為清史、中華民國史、人物傳記史料、學術論文集及史料重刊等九個類別，並設有史料閱覽及圖書期刊空間供民眾前往閱覽。", :address=>" 臺北市中正區長沙街1段2號", :image=>"http://img3.okgo.tw/titlepic/b2406_1.jpg", :region=>"中正區", :lat=>25.0399941, :lng=>121.510812, :categories=>["street_address"]}, 
  {:name=>"大稻埕碼頭", :description=>"早期的大稻埕，原是平埔族的居住地，後來因萬華同安人發生激烈的械鬥，許多人便移至大稻埕定居，此後，這裡便成為台北盆地內的物資集散中心，與重要的外貿重要地點，當地的領事館、洋行、商號雲集，茶館、茶行林立，這裡便成了當時全口最大的茶葉、樟腦交易中心，今日的大稻埕，仍可在街道裡看出一些些的遺留下的歷史記錄，而碼頭更經常成為演出活動的舉辦地點，我相信這裡將永遠不會被人們所遺忘。", :address=>"台北市大同區民生西路399號2樓", :image=>"http://img3.okgo.tw/titlepic/b508_1.jpg", :region=>"大同區", :lat=>25.0569886, :lng=>121.5094259, :categories=>["subpremise"]}, 
  {:name=>"迪化街", :description=>"迪化街上的店家大約有250家，其範圍包括了南京西路至歸綏街口、甘州街、保安街交叉口朝陽公園、甘谷街、南京西路一帶，早期這裡因為靠近淡火河，成為台北繁華的商業區之一，今日因為街道狹窄，因此發展有限，但在政府大力推動年貨大街後，昔日的盛況又再度出現，成為南北貨、中藥和布匹批發商集中地，歲末時，這裡的人潮更是擠得水洩不通，非常熱鬧。", :address=>"迪化街1段(南京西路至歸綏街口)、甘州街、保安街交叉口、朝陽公園、甘谷街、南京西路一帶", :image=>"http://img3.okgo.tw/titlepic/b258_1.jpg", :region=>"大同區", :lat=>25.0591559, :lng=>121.512811, :categories=>["intersection"]}, 
  {:name=>"延平河濱公園", :description=>"位於大稻埕碼頭附近的「延平河濱公園」平常除了是婆婆媽媽、老爺爺早起打極拳、跳土風舞的場地外，也是許多人週休假日出遊的好去處。一大片綠意盎然的草地以及綿延成蔭的樹林吸引許多人來此踢球、放風箏，而且河濱公園內有籃球場、網球場、溜冰場、槌球場、羽球場及自行車租借站等等，設備相當齊全。 「延平河濱公園」鄰近熱鬧的迪化街、霞海城隍廟以及永樂市場，到碼頭邊欣賞完河岸景致後，可以步行至迪化街購買中藥，或是到永樂市場去逛逛種類繁多布品、吃傳統浮水魚羹，享受週末的悠閒時光。", :address=>"臺北市忠孝橋至延平北路九段中洲抽水站之間堤外高灘地", :image=>"http://img3.okgo.tw/titlepic/b2982_1.jpg", :region=>"大同區", :lat=>25.1074422, :lng=>121.4717338, :categories=>["route"]}, 
  {:name=>"台北當代藝術館", :description=>"「台北當代藝術館」位於台北市大同區的中山捷運站附近，交通便捷，所在的建築物建於1921年，歷史悠久，為日治時期專門供給日人子弟受教育的「建成小學校」。面寬有120公尺寬的兩層樓建築，採紅磚壁與木材屋架，並結合了西方建築柱式與黑瓦斜屋頂，融合了中西方的建築特色，打造出U字型的校舍建築與空間。 1945年後，建成小學校舍就被轉用為新成立的台北市政府辦公廳舍，近五十年的時間這棟建築扮演著台北市政府的運轉中樞角色，2001年後這棟已成為市定古蹟的舊市府被重新修復、再次打造成「台北當代藝術館」。 台北當代藝術館將藝術、古蹟、科技三者做了巧妙的結合，辦理多檔精采絕倫且豐富多元的當代藝術展覽，成為了台北市藝文發展的重要據點，並且提供了互動性且整合度強的展覽平台，鼓勵多元面貌的藝術創作，開拓出極具前瞻性與創意的新文化思維。 【參觀須知】1. 請勿於展場內高聲談笑、追逐嬉戲、飲食、吸煙及拋棄紙屑、雜物。2. 請勿於展場內使用行動電話進行談話。3. 服裝不整、攜帶寵物者謝絕進入參觀。4. 本館目前全面開放攝影，為維護現場觀展品質，請勿使用閃光燈、腳架以及錄影，展場工作人員亦不提供攝影服務，不便之處敬請見諒。同時請尊重藝術家之智慧財產權及作品版權所有。", :address=>"台北市大同區長安西路39號", :image=>"http://img3.okgo.tw/titlepic/b3535_1.jpg", :region=>"大同區", :lat=>25.0507246, :lng=>121.5189745, :categories=>["street_address"]}, 
  {:name=>"台原亞洲偶戲博物館（林柳新紀念偶戲博物館）", :description=>"台原亞洲偶戲博物館位於大稻埕內，原名為「林柳新紀念偶戲博物館」，鄰近迪化老街，建築物為兩棟並陳的四層樓房，規劃有博物館辦公室、雕刻工坊、DIY教室、偶戲特展室、精品典藏空間，以及適合各類專業演出的納豆劇場（表演廳），將兩百坪左右的空間使用的淋漓盡致，設備相當完善。 博物館會不定期策劃各項偶戲展覽，並且開設布袋戲雕刻製作、偶戲大師示範表演、親子偶戲劇場、傳統偶戲技術推廣等課程，讓民眾更容易參與偶戲的藝術世界，將傳統偶戲文化永續傳承，並且體會偶戲表演的樂趣與藝術美感。", :address=>"臺北市大同區西寧北路79-1號", :image=>"http://img3.okgo.tw/titlepic/b3527_1.jpg", :region=>"大同區", :lat=>25.0557493, :lng=>121.5090952, :categories=>["street_address"]}, 
  {:name=>"台灣總督府交通局鐵道部", :description=>"「台灣總督府交通局鐵道部」為市定第三級古蹟，是日治時期台灣總督府轄下管理及營運鐵路的部門，也就是今日交通部台灣鐵路管理局的前身。鐵道部成立於日治時代(西元1899年11月8日)，於1908年縱貫線全線貫通，這也是日治時期對台灣本島最大的成就，西元1945年，第二次世界大戰結束，國民政府便改制為台灣鐵路管理局。今日您仍可以看到日治時期鐵道部的辦公場所，就位於台北市北門附近的鐵路管理局舊廳舍，這棟具有歷史意義的老建築，因為年久失修，目前並無對外開放。", :address=>"台北市延平北路1號", :image=>"http://img3.okgo.tw/titlepic/b257_2.jpg", :region=>"大同區", :lat=>25.10585, :lng=>121.477933, :categories=>["street_address"]}, 
  {:name=>"台北孔廟", :description=>"孔子生於周靈王21年8月27日(陰曆)，經專家研究換算為國曆的9月28日，因此便將該日訂為孔子誕辰紀念日，又稱為教師節。孔廟主祀大成至聖先師孔子，以及歷代的先賢、先儒，大龍峒老街裡就座落著一座清光緒年間（西元一八七九年）建構的「孔廟」，而後歷經戰爭、光復、修復，今日的孔廟，已作為為集會、講座、讀經及書法等研習課程及藝文活動之用，每年的九月二十八日，是孔子誕辰紀念日，當天還會舉行隆重的祭孔大典，表達對孔子的崇敬，並且還會有來自各地的國內外人士來此觀賞由學生在大成殿外的月台上，表演八佾舞。", :address=>"大同區大龍街275號", :image=>"http://img3.okgo.tw/titlepic/b259_6.jpg", :region=>"大同區", :lat=>25.0727623, :lng=>121.5161793, :categories=>["street_address"]}, 
  {:name=>"美麗華百樂園摩天輪", :description=>"美麗華百樂園位在台北市中山區，經過六年的規劃籌建後，於民國九十三年十一月正式開幕營業，並建有本館及漾館兩區，為一座多元化的休閒購物中心。美麗華百樂園中設有精品銷售及美食天地，還有全台灣首座架設於頂樓的百米摩天輪，夜晚時亮起「天樂、地彩、風舞」三個主題的霓虹燈，變化萬千的繽紛景致，是許多情侶約會的地點。此外還有高二十一公尺，寬二十八公尺的巨型螢幕，配合二Ｄ及三Ｄ的影片播放，讓觀賞民眾有身歷其境的感受。", :address=>"台北市敬業三路20號 ", :image=>"http://img3.okgo.tw/titlepic/b300_1.jpg", :region=>"中山區", :lat=>25.0833072, :lng=>121.5571648, :categories=>["street_address"]}, 
  {:name=>"大佳河濱公園", :description=>"大佳河濱公園位於台北市中山區，面積約420,000平方公尺，原稱基河公園，經台北市政府開發整建為都會型綠化公園，其中又以大佳河濱段為一座非常有特色的親水性運動公園。公園設有大型的景觀噴泉池，直徑長達125公尺，中央水柱最高達75公尺，每日均會有噴水表演，但基於遊客安全，並不開放民眾在此戲水，除此之外，一望無際、視野寬闊的河岸親水草坪與籃球場、網球場、羽球場、搥球場等運動設施，都是供民眾闔家歡聚、活動筋骨、嬉戲的好場所。", :address=>"中山區基隆河大直橋至中山橋（大佳段）", :image=>"http://img3.okgo.tw/titlepic/b175_1.jpg", :region=>"中山區", :lat=>25.07469, :lng=>121.5411006, :categories=>["establishment", "park", "point_of_interest"]}, 
  {:name=>"花博新生公園(迷宮花園）", :description=>"花博新生公園為台北圓山花博三處之一，而此處因迷宮公園吸引旅客打卡成為熱門景點，除了迷宮外，更有台北玫瑰園及大草皮、自行車道、彩色水管等。迷宮花園為五做迷宮組成的八卦圖，外圍較高的成人迷宮是垂榕綠籬，而內圈較矮的兒童迷宮則是樹蘭綠籬，各有討站，當走到中央會發現隱藏在期中的城市、花香與飛鳥、怪獸、螞蟻等圖案。", :address=>"台北市中山區新生北路三段105號", :image=>"http://img3.okgo.tw/titlepic/b175_1.jpg", :region=>"中山區", :lat=>25.0685824, :lng=>121.5296094, :categories=>["street_address"]}, 
  {:name=>"林安泰古厝", :description=>"林安泰古厝位在濱江公園中，是北台灣保存完整的傳統建築，林氏祖先林堯於清乾隆十九年(西元1754年)自安溪渡海抵台，其子林回於艋舺經商有成，清乾隆四十八年(西元1783年)於現今四維路附近興建一座傳統四合院，並以祖籍安溪及商號榮泰，將宅院命名為「安泰」，在建成後陸續擴建左右廂房、門廳及書房等，目前格局為兩進四廂房。民國六十年代台北市政府為拓寬道路遇拆除林家古厝，林家族人林思訓先生決定將拆除後的原材料交由市政府編號收藏，因此林安泰古厝才能在濱江公園中重現風貌。林安泰古厝的整體建築雖不特別華麗新艷，但嚴謹莊重，且雕刻工藝相當精緻，像是四季花卉、仙鶴、喜鵲、蝙蝠、福祿壽及老萊子娛親等圖案，最特別的門廳旁的團龍爐透刻，共有六條龍交錯盤結，而這六條龍指得就是林回的六個兒子。", :address=>"台北市中山區濱江街5號", :image=>"http://img3.okgo.tw/titlepic/b289_1.jpg", :region=>"中山區", :lat=>25.071749, :lng=>121.5303571, :categories=>["street_address"]}, 
  {:name=>"中山美術公園", :description=>"位在民族東路和中山北路交叉口、市立美術館南邊的中山美術公園，於民國87年6月啟用，園區面積約10.5公頃，設有水景藝術景觀區、精緻草花展示區、地景雕塑區、陳靖娟小姐紀念雕像區、浮面藝術展示區、戶外劇場及多功能草坪區，這裡原來是軍方「圓明園」、「彩虹賓館」的舊址，但為給台北市民一處休憩的生活環境，因而將此地開闢。", :address=>"中山北路以東，民族東路以北", :image=>"http://img3.okgo.tw/titlepic/b261_1.jpg", :region=>"中山區", :lat=>25.0681993, :lng=>121.5363041, :categories=>["route"]}, 
  {:name=>"台北市立美術館", :description=>"位於中山美術公園內的台北市立美術館，是台灣首座現代美術館，設有展覽室、服務中心、售票處及美術紀念品店等服務區，館內主要辦理國內外重要的大型展覽、美術競賽，並且樓層也經常更換不同的展覽主題，除此之外，每年也定期出版美術期刊等刊物，這裡更成為台北市民休閒的最佳去處。", :address=>"中山北路3段181號", :image=>"http://img3.okgo.tw/titlepic/b262_1.jpg", :region=>"中山區", :lat=>25.0725939, :lng=>121.5248517, :categories=>["street_address"]}, 
  {:name=>"行天宮", :description=>"位於台北市中山區的行天宮，一般俗稱「恩主宮廟」，由玄空師父親自打理建廟事務，並於民國56年(西元1967年)時建立，其廟宇供奉「關公關雲長」，莊嚴樸實的廟宇因靈驗而香火鼎盛，許多商場也會來此祈求生意興隆，這裡更為信徒身、心、靈寄託的空間場所。", :address=>"中山區民權東路2段109號", :image=>"http://img3.okgo.tw/titlepic/b264_1.jpg", :region=>"中山區", :lat=>25.0628658, :lng=>121.5338733, :categories=>["street_address"]}, 
  {:name=>"台北忠烈祠", :description=>"台北忠烈祠建於民國五十八年，位在台北圓山大飯店旁，佔地遼闊周圍約有萬坪的草地，主體為仿北京故宮太和殿的中式建築，忠烈祠內供奉抗日戰爭、國共內戰及中華民國建國前的革命烈士，共約三十九萬位將士官兵，每年春秋兩季國家元首皆會率朝政官員前來致意，十月份國慶時更吸引國內外大批民眾前來參觀。參觀忠烈祠還有一處重點，那就是每小時一次的衛兵交接儀式，大門前不茍言笑的衛兵帶著嚴謹的態度，做好每一次的儀式，就像是對祠堂中的烈士致意，令民眾讚賞不已。", :address=>"台北市北安路139號", :image=>"http://img3.okgo.tw/titlepic/b291_1.jpg", :region=>"中山區", :lat=>25.0781248, :lng=>121.5302507, :categories=>["street_address"]}, 
  {:name=>"圓山大飯店", :description=>"矗立於半山上的圓山大飯店，創立於民國41年(西元1952年)，而後陸續有游泳池、網球場、餐廳、咖啡廳等建設，飯店有著雄偉的古宮廷式建築外觀，日治時期這裡曾是日本神社，今日更成為國家招待外賓的場所與會議場地，並且也為來自各地的旅人提供一處優質的休憩之地。", :address=>"中山北路4段1號", :image=>"http://img3.okgo.tw/titlepic/b267_1.jpg", :region=>"中山區", :lat=>25.0761801, :lng=>121.5261925, :categories=>["route"]}, 
  {:name=>"北安公園", :description=>"位於中山北路四段圓山隧道旁的北安公園，於民國62年(1973年)開闢，其佔地面積14,000平方公尺，公園內設有三座仿木的涼亭、一座花壇及造型優雅的宮殿式園門，公園內的一片綠意，更顯得這裡十分清幽，每每清晨總會看到許多健行客由此經過前往後山，週休假日之餘，您也可以來此放慢您的生活步調，讓身心在此重新調劑一下，恢復活力再出發。", :address=>"中山區中山北路四段(圓山飯店東側)", :image=>"http://img3.okgo.tw/titlepic/b281_1.jpg", :region=>"中山區", :lat=>25.078304, :lng=>121.526137, :categories=>["establishment", "lodging", "point_of_interest"]}, 
  {:name=>"彩虹橋", :description=>"「彩虹橋」從饒河夜市跨越基隆河，連結了內湖區潭美街，鮮紅色的彩虹橋是採用鋼索與拱門造型支撐，每當夜幕低垂，圓弧型的橋身倒映水面便會呈現出完美的圓，吸引許多攝影愛好者來此取景。橋面結構則為S型曲線，蜿蜒的橋身就像是一條身手矯捷的龍，靈巧地漫游過基隆河，特殊的造型常吸引民眾散步或踩著自行車漫遊。值得一提的是，在橋墩的兩側各設有一面鎖牆，情侶與夫妻們可以來此買把鎖，鎖上兩人的愛情，宣示著永不變心的誓言喔～", :address=>"台北市松山區饒河街221巷底", :image=>"http://img3.okgo.tw/titlepic/b3237_1.jpg", :region=>"松山區", :lat=>25.0521487, :lng=>121.5766513, :categories=>["establishment", "point_of_interest"]}, 
  {:name=>"裸市集", :description=>"特約記者謝佳真   「無包裝商店」其實就像是古早街坊商店與市場的變化版，消費者去店裡挑選食材，付錢後，將商品放入自備容器中提了就走。這種消費方式能避免過度包裝造成環境負擔，亦能減少商品不必要的浪費，在許多西方國家行之有年。 2015年的9月，台北的民生社區終於出現了第一家無包裝商店──裸市集。 民生社區附近便是富錦街，承襲了這一帶悠閒並帶點文藝的氣氛，裸市集的裝潢風格簡潔大方，如同名字般，簡單而沒有過度的裝飾。裸市集販賣西式烘焙食材，以秤重的方式計價。每種食材都裝在透明的罐子中，顧客可根據自己需求分裝小份量食材，避免過多浪費。 裸市集不單只是賣材料，創辦人希望讓更多消費者用低廉的價格買到品質優良的商品，鼓勵人們嘗試對身體更友善的烹調方式。在店面後方，設有開放式廚房，提供料理教學與簡易甜點。「褪去華麗包裝，回歸食物本質」是裸市集的創立宗旨。用意不只是減少浪費，也希望消費者藉著少量購買、降低價格的方式，讓一般民眾也有權享受優良食材。雖然無包裝的概念在台灣要普及仍需時間，但裸市集勇敢跨出了第一步。", :address=>"台北市松山區民生東路4段75巷1號", :image=>"http://img3.okgo.tw/titlepic/b3627_1.jpg", :region=>"松山區", :lat=>25.0580788, :lng=>121.555653, :categories=>["street_address"]}, 
  {:name=>"饒河街觀光夜市", :description=>"饒河夜市是北台灣大型的觀光夜市，位在八德路四段至塔悠路口間，繞河街約有六百公尺，大約成立於民國七十六年，並成立饒河街觀光夜市管理委員會，且規劃標誌與吉祥物貓頭鷹，有效管理夜市。饒河夜市兩端入口處各有一座牌樓，晚間皆會亮起璀璨的燈火，夜市中有美食、飾品、遊戲、精品、民俗技藝及百貨等約四百多個攤位與店家，吸引許多民眾前來購物及品嘗美食小吃。", :address=>"台北市饒河街", :image=>"http://img3.okgo.tw/titlepic/b121_1.jpg", :region=>"松山區", :lat=>25.0504196, :lng=>121.5748616, :categories=>["route"]}, 
  {:name=>"松山機場", :description=>"「松山機場」於1936年4月啟用，是台灣的第一座機場，因為位於台北市內，又稱為台北機場。目前做為軍民合用機場，民用部分稱為「台北國際航空站」，軍用則是「空軍松山機地」，佔地共約有213公頃。機場內設有第一航廈與第二航廈，特別的是，第二航廈的三樓樓頂在2011年底新設了觀景台，開放讓旅客與市民可以在此安全欣賞飛機起降，相當有趣。", :address=>"臺北市松山區敦化北路340之9號", :image=>"http://img3.okgo.tw/titlepic/b3383_1.jpg", :region=>"松山區", :lat=>25.0619784, :lng=>121.5519952, :categories=>["street_address"]}, 
  {:name=>"大安森林公園", :description=>"大安森林公園於民國八十三年正式對外開放，位外台北市中心地段良好，佔地面積約二十六公頃，公園內種植多樣化的植物，將其規劃為不同的主題區域，包括香花區、竹林區、喬灌木區及棕梠樹區等，是台北市的「城市之肺」。園區中設置有露天音樂台、活動廣場、兒童遊戲台、慢跑道及公共自行車道等設施，其中露天音樂台可容納九百餘人，經常舉行藝文音樂性質的表演活動。大安森林公園中除了綠意盎然的植物之外，經濟部水資源局也在此擺設省水器材、水質淨化模廠及公廁示範系統等設備，提醒民眾珍惜水資源的重要性。", :address=>"台北市新生南路2段1號", :image=>"http://img3.okgo.tw/titlepic/b273_1.jpg", :region=>"大安區", :lat=>25.0310609, :lng=>121.535552, :categories=>["street_address"]}, 
  {:name=>"蒙藏文物展示中心", :description=>"蒙藏文物展示中心位於師大文教區青田街住宅區內，中心佔地約三百多坪，展示中心的外觀相當具有特色，為一棟仿西藏寺廟的建築，中心共分為4層樓，設有文物展示區、圖書館、視聽教室、小型會議室、演講廳等，並且也不定期舉辦演講、歌舞表演、畫展、紀念法會，為一座多功能專業蒙藏文化中心，也成為國內最佳的蒙藏文物推廣場所。", :address=>"台北市青田街八巷三號", :image=>"http://img3.okgo.tw/titlepic/b271_1.jpg", :region=>"大安區", :lat=>25.027661, :lng=>121.5313828, :categories=>["establishment", "library", "point_of_interest"]}, 
  {:name=>"清真寺", :description=>"位於台北市大安區的清真寺，外觀建築因獨特而讓人更是一目了然這裡就是清真寺，寺廟於民國49年(西元1960年)落成，寺內肅穆莊嚴，主要提供回教人士在此作禮拜與集會，並且也設有回教圖書館、供回教教徒閱覽。", :address=>"台北市新生南路二段62號", :image=>"http://img3.okgo.tw/titlepic/b272_1.jpg", :region=>"大安區", :lat=>25.0279341, :lng=>121.534195, :categories=>["street_address"]}, 
  {:name=>"台北龍山寺", :description=>"萬華龍山寺落成於清乾隆五年(西元1740年)，歷史悠久的龍山寺將過多次的重建，寺廟中的主祀神祇為觀世音菩薩，並供奉有註生娘娘、文昌帝君、城隍爺、地藏王菩薩及媽祖等眾多神祇。龍山寺佔地一千八百多坪，整體建築格局為「日」字型，是三進四合院的傳統宮殿建築，分為前殿、正殿、後殿及左右護龍，廣場前部分石板是早期自中國渡海來台用來壓艙的石板，殿前有一對在台灣獨一無二的銅鑄龍柱，廟宇外觀氣派富麗堂皇，擁有彩繪、木刻、石雕及剪黏等精湛的工藝裝飾，為國家二級古蹟，除了是當地民眾的信仰中心，也是盛名於全台灣頗具威望的廟宇。", :address=>"台北市萬華區廣州街211號", :image=>"http://img3.okgo.tw/titlepic/b276_3.jpg", :region=>"萬華區", :lat=>25.0367954, :lng=>121.4999306, :categories=>["street_address"]}, 
  {:name=>"剝皮寮老街(剝皮寮歷史街區)", :description=>"「剝皮寮歷史街區」位於臺北市萬華區一帶，北臨老松國小，東至昆明街，南面廣州街，西接康定路，為臺北市今日碩果僅存的清代街道之一。 「剝皮寮」之名始於戰後的1950年代，一說為此處為剝獸皮之所在；一說則乃因清朝時期福州商船運進杉木，在此剝去樹皮而得名。從舊有文獻可見剝皮寮聚落成形於1850年代的清代早期，開發至今已有兩百多年的時間；日治時期將原本窄小的道路拓寬、拉直。1895年此處為唐景崧力主台灣民主國，並發起台灣仕紳遊行的起點。而後由於座為電影《艋舺》取景處而成為台北市的熱門景點之一。", :address=>"台北市萬華區廣州街與康定路口", :image=>"http://img3.okgo.tw/titlepic/b3861_2.jpg", :region=>"萬華區", :lat=>25.036838, :lng=>121.5021648, :categories=>["establishment", "point_of_interest"]}, 
  {:name=>"西門町", :description=>"「西門町」這個名稱訂於民國十一年(西元1922年)，日治時期台北城內為民眾的主要居住地，城外的西門地區就成為居民的休憩場所。西門町在西元1896年時成立首家戲院「東京亭」，之後戲院就成為西門町主要的娛樂活動，並發展出其他的商業店家，但在東區崛起後，西門町沉寂了一段時間，直到捷運完工加上市政府的完善規劃，現今聚集電影院、百貨業、娛樂業及美食店家進駐，是時下年輕族群喜愛的娛樂購物商圈。", :address=>"台北市成都路1號", :image=>"http://img3.okgo.tw/titlepic/b277_1.jpg", :region=>"萬華區", :lat=>25.042604, :lng=>121.508051, :categories=>["street_address"]}, 
  {:name=>"華西街觀光夜市", :description=>"華西街觀光夜市鄰近龍山寺，自民國四十年發展至今已將近有五十個年頭，是台灣首座觀光夜市，入口處有一座傳統中式牌樓，街道掛著紅色燈籠，相當具有鄉土特色，主要以台灣各種山產野味及海鮮料理為主。華西街觀光夜市中最特殊的料理首推蛇肉及蛇酒，據說蛇料理多具有驅毒活血的功效，到了晚間人潮漸多時，蛇肉店家還會有殺蛇及逗蛇的表演，吸引民眾圍觀。此外，像是大鼎羹、台南擔仔麵及魷魚羹等美食也非常受到民眾歡迎，夜市裡多是營業數十年的老字號店家。", :address=>"台北市華西街1號(萬華火車站至華西街一帶)", :image=>"http://img3.okgo.tw/titlepic/b118_1.jpg", :region=>"萬華區", :lat=>25.0379439, :lng=>121.4984439, :categories=>["establishment", "food", "point_of_interest", "restaurant"]}, 
  {:name=>"青年公園", :description=>"青年公園位於萬華區西側，為一座綜合性的開放公園，面積約24.44公頃，其實日據時代，這裡曾經是練兵場，後來又改建南機場、台北高爾夫球俱樂部，一直到了民國63年(西元1974年)，改由台北市政府接管後，改建青年公園，民國66年9月完工，公園內的設施非常的完善，除了有高爾夫球場、游泳池、網球場是需要付費使用的，其他籃球場、羽球場、棒球場、溜冰場、網球練習牆、野外運動場都是可以免費使用的運動遊樂設施，除此，園區內還設有盆栽館、閱覽室、視聽教室、露天音樂台、駐警室等社教服務設施，在在都是要讓市民有一處優質的休閒好去處，公園內美麗的景致更是道不盡的，大量的綠色植物與花卉，讓人彷彿置身在森林浴中，身心皆獲得調劑，難怪這裡成為市民大眾週休假日的休憩好去處。", :address=>"萬華區水源路199號", :image=>"http://img3.okgo.tw/titlepic/b274_1.jpg", :region=>"萬華區", :lat=>25.022269, :lng=>121.5070334, :categories=>["street_address"]}, 
  {:name=>"紅樓劇場", :description=>"西門町的紅樓劇場建於西元1908年，距今已有百餘年的歷史，是台灣首座由官方興建的公營市場，以紅磚及大綱樑塑造的建築充滿異國風情，當時是藝術及娛樂的中心，曾有過繁榮的歷史年代，西元1997年由台北市政府評定後為三級古蹟。西元2002年紙風車文教基金會接手管理，擔負起重現往日風華的重責大任，2008年時再由台北市文教基金會承接，現今規劃有河岸留言展演館、月光電影院、創意市集、八角樓劇場、町西茶喫及露天咖啡座等區域，民眾可到此享用茶點小憩，河岸留言及劇場也會不定期邀請藝人及劇團前來演出。", :address=>"台北市萬華區成都路10號", :image=>"http://img3.okgo.tw/titlepic/b278_1.jpg", :region=>"萬華區", :lat=>25.0420652, :lng=>121.5069348, :categories=>["street_address"]}, 
  {:name=>"台北市清水巖", :description=>"艋舺清水巖位在台北市萬華區，又稱為「祖師廟」，建於清乾隆二十五年(西元1787年)，主祀神祇為清水祖師陳昭，廟內供奉有七尊神像，據傳只要天災將至，清水祖師的鼻子即會落下警示信眾，直到災難結束才會恢復原狀，因此又有落鼻祖師之尊稱。清水祖師相傳為宋朝人，俗名為陳應也名昭，為民眾施醫濟藥及祈雨等，居民遂在清水祖師居所建蓬萊山石室精舍，稱為清水巖。艋舺龍山寺、大龍峒保安宮與清水巖祖師廟為台北市的三大廟門，具有特殊的歷史意義。清水巖廟宇中的裝飾工藝歷史悠久，包括硬山翹脊屋頂、龍柱、山牆、磚雕即石鼓等皆渾厚樸拙，且刻有清朝帝號年代，是清朝中期的廟宇代表象徵，經評定為國家三級古蹟。", :address=>"台北市萬華區康定路81號", :image=>"http://img3.okgo.tw/titlepic/b765_1.jpg", :region=>"萬華區", :lat=>25.0403184, :lng=>121.5021374, :categories=>["street_address"]}, {:name=>"四四南村", :description=>"_特約記者陳健安   來到台北信義區，多數人的印象一定是台北101、高樓林立、各式商場爭奇鬥艷等繁華景象，而這次要介紹的眷村景點就在信義區，而且還是在台北101對面！ 「四四南村」為台北市第一個眷村，由於位在陸軍庫房聯勤第四十四兵工廠的南邊因而命名。也因位居台北信義區都更重鎮，被迫歷經多次拆除計畫。直自1999年火災後，為將代表性的建築留作眷村文化的縮影，在多數人聯署之下加以重整保留，部分房舍更改建成「信義公民會館」，包含特展館、眷村展示館、展演館、社區館、四四廣場及文化公園等多元化展覽用途。 「四四南村」與一般早期的眷村相似，主要以木材、竹籬、石灰及瓦片所建築而成。特別的是「四四南村」為一連棟式的平房，採「魚骨狀」的架構排列，共分甲、乙、丙字號三大建築群。 緊鄰台北101絕佳的地理位置，不論是公園的涼椅或是特殊的屋頂草地，都是觀賞101的絕佳首席，也因時代背景不同，令人產生穿越時空的錯覺及城鄉差異的感覺。近距離觀看101後，不免發現旁邊的招牌形容得恰到好處「好丘！」，「乙字號」建築群為「好丘」進駐，內設有餐飲及文創商品，替眷村注入不少生氣。 想到台北看看不一樣的都市樣貌，不妨前來「四四南村」感受舊式眷村的氛圍，看著大台北昔日至今的變化！", :address=>"台北市信義區松勤街50號", :image=>"http://img3.okgo.tw/titlepic/b3572_1.jpg", :region=>"信義區", :lat=>25.0319706, :lng=>121.5618718, :categories=>["street_address"]}, {:name=>"Taipei 101購物中心", :description=>"Taipei101大樓位在台北市信義區，是台北市的著名地標，共有地上101層及地下5層，總高度達到508公尺，目前為世界第一高樓。Taipei101大樓主要共分為購物中心、辦公大樓及景觀台，是一棟集合時尚、觀光、商業及文化的大樓，內部有多家銀行及證券金融中心服務於此，並有多家著名大型企業進駐，購物中心內則有時尚服飾、精品、化妝品、書店、餐廳及美食街等店家，88、89及91樓則為室內與戶外觀景台，民眾可購票前往俯瞰台北市，享受居高臨下的視覺饗宴。Taipei101大樓近年來更連續在跨年時刻施放大型煙火及燈光效果，是台北市跨年活動中主要的重頭戲。", :address=>"台北市信義區市府路45號", :image=>"http://img3.okgo.tw/titlepic/b279_1.jpg", :region=>"信義區", :lat=>25.0334929, :lng=>121.564101, :categories=>["street_address"]}, {:name=>"橡子共和國（信義店）", :description=>"推出「龍貓」、「神隱少女」、「魔女宅急便」等膾炙人口的動畫片，日本吉卜力工作室在動畫史上有著不可動搖的地位，台北信義區開設了一家全球最大的「橡子共和國」信義店，滿滿的周邊商品與龍貓場景佈置，讓您重溫龍貓帶來的溫馨感動～ 一入門，就立刻可以看到「等身大」的龍貓在此迎接，撐把紅傘就能化身為動畫裡的主角，跟龍貓一起等公車。接著，枝條交錯的森林隧道延伸入店，逼真的動畫造景增添了些許童趣，行至隧道中段還可以在樹洞中窺看正在打瞌睡的龍貓喔～ 龍貓公車也是店內人氣火紅的新寵兒，可愛又具有靈氣的模樣讓人彷彿置身於動畫場景中，目的地寫著「信義」的龍貓巴士更是全球絕無僅有，絕對值得您專程到訪！ 橡子共和國不但販售吉卜力數量豐碩的周邊商品，還規劃有亞洲限定商品區，讓您絕對不會空手而歸～", :address=>"台北市信義區松壽路12號（ATT4FUN地下一樓）", :image=>"http://img3.okgo.tw/titlepic/b3552_1.jpg", :region=>"信義區", :lat=>25.03531, :lng=>121.5660665, :categories=>["subpremise"]}, {:name=>"台北探索館", :description=>"位在台北市信義區的台北探索館原為市政資料館，後在完善的規劃下更新為台北探索館，於民國九十一年十二月正式對外開放，是台灣首座的城市博物館。台北探索館共有四層樓，各有不同的展覽主題，一樓為台北印象廳，以圖文及影像營造台北印象；二樓則是特展廳，不定期舉行各式展覽；三樓為城市探索廳，擁有現今台北風情的縮影；四樓則是時空對話廳，充滿著台北古城的老回憶；另外還有發現劇場，是一座３６０度環型螢幕的劇場，播放著「台北故事四部曲」的四部影片，歡迎欲了解台北城的民眾前往參觀。", :address=>"市府路1號(市政大樓西區低層棟1至4樓)", :image=>"http://img3.okgo.tw/titlepic/b129_1.jpg", :region=>"信義區", :lat=>25.037531, :lng=>121.5639969, :categories=>["street_address"]}, {:name=>"象山石園（六巨石）", :description=>"象山因外型類似象頭而得名，位於台北盆地上東南方的信義區，因自然資源豐富且環境清幽，孕育出多種蕨類植物，且登頂還能眺望台北市盆地的夜景，是台北人遠離塵囂的好所在。而在步道上有一處巨石林立的奇特景象，這裡被稱為象山石園，又名六巨石、老萊峽，大大小小的石頭錯落其中，吸引許多遊客在此攀上巨石，遠眺台北101大樓的壯麗建築。另外，在象山石園（六巨石）旁邊也新設了一處攝影平台，讓許多攝影愛好者能夠在此拍攝101大樓的風情萬種。", :address=>"象山步道上景點", :image=>"http://img3.okgo.tw/titlepic/b3242_1.jpg", :region=>"信義區", :lat=>25.0273924, :lng=>121.570828, :categories=>["establishment", "park", "point_of_interest"]}, {:name=>"象山石園（六巨石）", :description=>"象山因外型類似象頭而得名，位於台北盆地上東南方的信義區，因自然資源豐富且環境清幽，孕育出多種蕨類植物，且登頂還能眺望台北市盆地的夜景，是台北人遠離塵囂的好所在。而在步道上有一處巨石林立的奇特景象，這裡被稱為象山石園，又名六巨石、老萊峽，大大小小的石頭錯落其中，吸引許多遊客在此攀上巨石，遠眺台北101大樓的壯麗建築。另外，在象山石園（六巨石）旁邊也新設了一處攝影平台，讓許多攝影愛好者能夠在此拍攝101大樓的風情萬種。", :address=>"象山步道上景點", :image=>"http://img3.okgo.tw/titlepic/b3242_1.jpg", :region=>"信義區", :lat=>25.0273924, :lng=>121.570828, :categories=>["establishment", "park", "point_of_interest"]}, {:name=>"北星寶宮", :description=>"前往象山步道的「超然亭」拍攝台北盆地夜景，一直都是許多攝影愛好者的私房景點，想要走行家才知道的捷徑，那就不能錯過位於松山路上的「北星寶宮」，這裡可是前往象山最近、最輕便的道路，也是車輛行駛的終點。 沿著信義路六段直行後接續福德街，右轉福德街221巷直行經過奉天宮後，跟著指示便能抵達「北星寶宮」。停妥車輛後，循著「北星寶宮」右手邊有一條不起眼的小路上山，遇到第一個路口後，再沿著地上指示前往西北方向的象山，之後遇到第二個路口後，步行往「親山步道拓印亭」方向，只要五分鐘的步程就能抵達超然亭，輕鬆欣賞到華燈初上，101閃耀夜空的美麗夜景。", :address=>"台北市松山路670號之1", :image=>"http://img3.okgo.tw/titlepic/b3241_1.jpg", :region=>"信義區", :lat=>25.0312553, :lng=>121.5801927, :categories=>["street_address"]}, {:name=>"國父紀念館", :description=>"國父紀念館位在台北市信義區，是為紀念國父孫中山先生的偉大事蹟及革命情操，於民國五十三年籌建，並於民國六十四年竣工完建，由王大閎建築師所設計，佔地面積三萬五千坪，為仿唐式飛簷式宮殿建築，周圍擁有中山公園及翠湖，草木扶疏綠意盎然，近年來也舉行燈會活動，夜晚時刻也相當美麗。國父紀念館設置有國家演藝廳、展覽場所、多媒體影院、視聽中心及中山講堂等場館，並有三十餘萬冊藏書的圖書館，經常舉行文化講座及藝文展覽，是一座多元化的多元化藝術中心。", :address=>"台北市仁愛路4段505號", :image=>"http://img3.okgo.tw/titlepic/b280_1.jpg", :region=>"信義區", :lat=>25.0386163, :lng=>121.5578247, :categories=>["street_address"]}, {:name=>"國父紀念館", :description=>"國父紀念館位在台北市信義區，是為紀念國父孫中山先生的偉大事蹟及革命情操，於民國五十三年籌建，並於民國六十四年竣工完建，由王大閎建築師所設計，佔地面積三萬五千坪，為仿唐式飛簷式宮殿建築，周圍擁有中山公園及翠湖，草木扶疏綠意盎然，近年來也舉行燈會活動，夜晚時刻也相當美麗。國父紀念館設置有國家演藝廳、展覽場所、多媒體影院、視聽中心及中山講堂等場館，並有三十餘萬冊藏書的圖書館，經常舉行文化講座及藝文展覽，是一座多元化的多元化藝術中心。", :address=>"台北市仁愛路4段505號", :image=>"http://img3.okgo.tw/titlepic/b280_1.jpg", :region=>"信義區", :lat=>25.0386163, :lng=>121.5578247, :categories=>["street_address"]}, {:name=>"國父紀念館", :description=>"國父紀念館位在台北市信義區，是為紀念國父孫中山先生的偉大事蹟及革命情操，於民國五十三年籌建，並於民國六十四年竣工完建，由王大閎建築師所設計，佔地面積三萬五千坪，為仿唐式飛簷式宮殿建築，周圍擁有中山公園及翠湖，草木扶疏綠意盎然，近年來也舉行燈會活動，夜晚時刻也相當美麗。國父紀念館設置有國家演藝廳、展覽場所、多媒體影院、視聽中心及中山講堂等場館，並有三十餘萬冊藏書的圖書館，經常舉行文化講座及藝文展覽，是一座多元化的多元化藝術中心。", :address=>"台北市仁愛路4段505號", :image=>"http://img3.okgo.tw/titlepic/b280_1.jpg", :region=>"信義區", :lat=>25.0386163, :lng=>121.5578247, :categories=>["street_address"]}, {:name=>"國父紀念館", :description=>"國父紀念館位在台北市信義區，是為紀念國父孫中山先生的偉大事蹟及革命情操，於民國五十三年籌建，並於民國六十四年竣工完建，由王大閎建築師所設計，佔地面積三萬五千坪，為仿唐式飛簷式宮殿建築，周圍擁有中山公園及翠湖，草木扶疏綠意盎然，近年來也舉行燈會活動，夜晚時刻也相當美麗。國父紀念館設置有國家演藝廳、展覽場所、多媒體影院、視聽中心及中山講堂等場館，並有三十餘萬冊藏書的圖書館，經常舉行文化講座及藝文展覽，是一座多元化的多元化藝術中心。", :address=>"台北市仁愛路4段505號", :image=>"http://img3.okgo.tw/titlepic/b280_1.jpg", :region=>"信義區", :lat=>25.0386163, :lng=>121.5578247, :categories=>["street_address"]}, {:name=>"士林官邸公園", :description=>"民國三十九年先總統　蔣公將官邸設立於此，早期一般民眾鮮少接近，在時光變遷之下，民國八十五年時正式開放民眾參觀，成為台北市區中的另一處景點。士林官邸主要分為外花園、內花園及正房，建有栽種蘭花的溫室盆栽區、蔣夫人喜愛的玫瑰園、蔣家人做禮拜及受洗的凱歌堂、中式四角狀的新蘭亭及兩層樓高的慈雲亭，園區內規劃良好草木扶疏，蘭花及玫瑰盛開時美不勝收，更於每年三、四月份策劃士林官邸玫瑰季，吸引許多民眾前來參觀。", :address=>"士林區中山北路5段、福林路口東南側", :image=>"http://img3.okgo.tw/titlepic/b284_1.jpg", :region=>"士林區", :lat=>25.0948074, :lng=>121.5290357, :categories=>["establishment", "park", "point_of_interest"]}, {:name=>"臺北市立兒童新樂園", :description=>"台北市立兒童新樂園於2014年12月16日正式開幕，園區佔地約5公頃，斥資新台幣20億元打造，為全台灣規模最大的兒童樂園。兒童新樂園採「購買門票入園、遊具逐項收費」的方式，依熱門程度、遊玩時間收費，遊客可依自身時間、預算，彈性選擇喜歡的設施。園區以電子票卡的小額消費功能取代傳統紙票，可使用悠遊卡或現場購買電子票卡消費。 園區內設有13項遊樂設施，除重新規劃圓山區前身「兒童育樂中心」舊有的7項設施外，更新增了魔法星際飛車、飛天神奇號、叢林吼吼樹屋、尋寶船、星空小飛碟、和巡弋飛椅等6項設施。另外設有大型溜滑梯與兩百坪的室內球池區讓小朋友玩，每遇假日亦有遊行活動與表演展出。園區內約有20家中、西式餐廳，中式、傳統美食等小吃料理，亦有便利商店十分方便。美食街座位達1200個，也貼心設立兒童餐以供遊客取用。 台北市立兒童新樂園附近有天文館、科學教育館、美崙公園以及河濱公園，玩樂之餘更讓活動動線延伸，創造出一個多元化的享受教育及大自然的兒童新樂園。 營業時間：週二到週日：每日09:00~17:00週六及寒暑假期間延長營運至20:00週一及農曆除夕：休園日不對外開放 門票30元、半票15元，6歲以下免費，設施一次20元票價如有變動或更新請依現場為主。停車場：室內汽機車收費停車場", :address=>"臺北市士林區承德路5段55號", :image=>"http://img3.okgo.tw/titlepic/b2961_1.jpg", :region=>"士林區", :lat=>25.0791613, :lng=>121.5218698, :categories=>["street_address"]}, {:name=>"雙溪公園", :description=>"雙溪公園座落在至善路和福林路相交的三角地帶，公園於民國63年闢建，面積約2公頃，雙溪顧名思義是因為有兩條溪水匯聚形成，園內處處表達了江南景觀之美，景致古色古香、花團錦簇美不勝收，這裡也經常成為新人拍攝婚紗取景的地點。", :address=>"台北市士林區福林路與至善路交叉口", :image=>"http://img3.okgo.tw/titlepic/b294_1.jpg", :region=>"士林區", :lat=>25.0992423, :lng=>121.5364143, :categories=>["intersection"]}, {:name=>"國立故宮博物院", :description=>"國立故宮博物館自興建後經過多次的修築擴建，目前共有一、二、三樓為展示空間，四樓則為三希堂休憩茶座，院內共收藏有六十二萬餘件的物品，大部分為中國皇室中的珍品物件，展示物品主要分為書畫、圖書文獻及器物，除常設展示外，也經常不定期舉行大型歷史文物展覽，並提供中英文及親子免費導覽，是蘊含華夏博大精深文化的博物院。國立故宮博物院左側建有至善園，共有5,687坪，為仿中國宋代時的園林建築，園區中古意盎然，擁有濃厚的書卷人文氣息，民眾也可到此參觀。", :address=>"台北市士林區至善路2段221號", :image=>"http://img3.okgo.tw/titlepic/b298_1.jpg", :region=>"士林區", :lat=>25.1004238, :lng=>121.5496498, :categories=>["street_address"]}, {:name=>"陽明山國家公園", :description=>"陽明山國家公園舊稱為草山，於民國七十四年成立，是台灣第三座國家公園，位處亞熱帶及溫帶氣候區，海拔高度自兩百到一千一百二十公尺之間，佔地面積為11456公頃，主體為大屯火山群，園區內有多處溫泉區。陽明山國家公園擁有豐富的自然生態，像是安山岩及特殊的錐狀或鐘狀的火山體，一千三百多種的植物與森林植被，哺乳類、兩棲類、蝶類、魚類及爬蟲類等數千種的動物。每年春季二、三月時陽明山上繁花盛開，色彩艷麗的各種杜鵑及粉嫩的緋寒櫻為陽明山增添蓬勃的生氣，也是陽明山傳統的春天花季。夏季時動物活躍，下午雨後經常出現七彩彩虹。秋季時滿山遍谷的芒草顯得金黃閃耀，楓樹的葉片也逐漸變黃轉紅，形成著名的「大屯秋色」。冬季遇上強度寒流時偶降銀白瑞雪。陽明山的美隨著季節的腳步轉換相異的自然景致。", :address=>"台北市北投區陽明山竹子湖路1-20號", :image=>"http://img3.okgo.tw/titlepic/b1532_1.jpg", :region=>"士林區", :lat=>25.1556671, :lng=>121.5476897, :categories=>["street_address"]}, {:name=>"平菁街竹林步道", :description=>"陽明山平菁街除了櫻花出名，這裡還有一條隱密的竹林步道，適合民眾周末來此踏青，放鬆身心。在平菁街上沿著公平橋的指示走，就會抵達42巷的竹林步道口，嫩綠青翠的竹林種植於道路兩旁，蟲鳴鳥叫於耳邊鳴唱，緩慢步行細長的小道讓人輕鬆享受竹林景致、舒緩身心，最後則會抵達一座小涼亭，旅客們可在此野餐、休息，享受竹林裡的幽靜淡然後再折返。若再往前走則會抵達公平橋及狗殷勤古道（尾崙水圳道），最後會由永公路350巷走出，亦是享受假期的好方式之一。", :address=>"台北市士林區平菁街42巷", :image=>"http://img3.okgo.tw/titlepic/b3243_1.jpg", :region=>"士林區", :lat=>25.1291648, :lng=>121.5708553, :categories=>["route"]}, {:name=>"台灣科學教育館", :description=>"台灣科學教育館於民國四十五年成立，館內設有展示區、生命科學展示區、自然科學展示區、物質科學展示區及數學與地球科學展示區，更細心規劃各項主題導覽步道，是針對不同年級國小學童所設計，以及強力六聲道環音響系統及液壓動感座椅的３Ｄ動感電影院，並不定期舉辦科學特展、研習活動及講座等，讓學童可在寓教於樂的環境中學習科學知識。", :address=>"台北市士商路189號", :image=>"http://img3.okgo.tw/titlepic/b1521_7.jpg", :region=>"士林區", :lat=>25.0961275, :lng=>121.5166874, :categories=>["street_address"]}, {:name=>"士林夜市", :description=>"士林夜市是台北市大規模的觀光夜市，因鄰近學區擁有眾多年輕族群客層，加上捷運站及公車交通便利成為具有指標性的夜市。士林夜市擁有眾多小吃美食，像是士林大香腸、蚵仔煎、臭豆腐、冰品及大餅包小餅等，也吸引許多連鎖餐飲店家進駐，此外還有飾品服飾、精品、家具街、銀樓街及寵物用品等區域，除了大馬路上的店家攤販外，眾多新潮有個性的店鋪也藏身於小巷弄中，是著名的美食購物天堂。", :address=>"台北市基河路60號 ", :image=>"http://img3.okgo.tw/titlepic/b1933_1.jpg", :region=>"士林區", :lat=>25.084908, :lng=>121.524202, :categories=>["street_address"]}, {:name=>"明德樂園(已休業)", :description=>"位於士林區至善路底的明德樂園，佔地約15公頃，進入園區後，您可以即刻感覺得這裡環境清幽，蟲鳴鳥叫聲伴隨在旁，目前園區內有烤肉區、明德渡假會議中心、哥德花園會館，烤肉區也為市民烤肉的最好去處，這裡除了提供了廣大場地，讓您與大小朋友一起同樂樂外，也備有停車場及各式住宿套房，想體驗自然的休閒之旅嗎？那麼這裡會是您不錯的選擇。", :address=>"台北市士林區至善路三段55號", :image=>"http://img3.okgo.tw/titlepic/b1933_1.jpg", :region=>"士林區", :lat=>25.113137, :lng=>121.56526, :categories=>["street_address"]}, {:name=>"明德樂園(已休業)", :description=>"位於士林區至善路底的明德樂園，佔地約15公頃，進入園區後，您可以即刻感覺得這裡環境清幽，蟲鳴鳥叫聲伴隨在旁，目前園區內有烤肉區、明德渡假會議中心、哥德花園會館，烤肉區也為市民烤肉的最好去處，這裡除了提供了廣大場地，讓您與大小朋友一起同樂樂外，也備有停車場及各式住宿套房，想體驗自然的休閒之旅嗎？那麼這裡會是您不錯的選擇。", :address=>"台北市士林區至善路三段55號", :image=>"http://img3.okgo.tw/titlepic/b1933_1.jpg", :region=>"士林區", :lat=>25.113137, :lng=>121.56526, :categories=>["street_address"]}, {:name=>"至善園", :description=>"至善園座落在外雙溪故宮博物院右側，園區的景觀採用書法家王羲之所著「天下第一行書」做為設計藍本，分別為蘭亭、籠鵝、流觴曲水、碧橋西水榭、洗筆池、華表招鶴、柳岸聽鶯及松風閣八大勝景，園內的景致就像是中國庭園一般，帶給遊客怡然自得的新感受。", :address=>"台北市外雙溪至善路二段211號", :image=>"http://img3.okgo.tw/titlepic/b292_4.jpg", :region=>"士林區", :lat=>25.1001095, :lng=>121.5502401, :categories=>["street_address"]}, {:name=>"至善園", :description=>"至善園座落在外雙溪故宮博物院右側，園區的景觀採用書法家王羲之所著「天下第一行書」做為設計藍本，分別為蘭亭、籠鵝、流觴曲水、碧橋西水榭、洗筆池、華表招鶴、柳岸聽鶯及松風閣八大勝景，園內的景致就像是中國庭園一般，帶給遊客怡然自得的新感受。", :address=>"台北市外雙溪至善路二段211號", :image=>"http://img3.okgo.tw/titlepic/b292_4.jpg", :region=>"士林區", :lat=>25.1001095, :lng=>121.5502401, :categories=>["street_address"]}, {:name=>"馬槽溫泉區", :description=>"陽金公路旁馬槽橋兩側溪谷中的馬槽溫泉，屬陽明山地熱區，泉質為酸性硫酸鹽氯化物泉，PH值2~4，最高溫度達99°C，為火山性溫泉，溫泉終年不竭，水量雖豐沛，但不能飲用。馬槽溫泉區地質因熱液換質作用，因此這裡的溫泉活動頻繁，容易造成崩塌的情形，馬槽地區除了以溫泉名聞遐邇外，陽金公路旁的馬槽橋，也是觀光客的必玩點，每到了夜晚的時候，這裡總是光彩奪目，超級迷人。", :address=>"馬槽溪溪谷中，陽金公路西南 側上游者為馬槽溫泉，馬槽溪沿岸", :image=>"http://img3.okgo.tw/titlepic/b1530_1.jpg", :region=>"士林區", :lat=>25.188798, :lng=>121.569384, :categories=>["establishment", "food", "lodging", "point_of_interest", "restaurant", "spa"]}, {:name=>"翠峰古道", :description=>"_特約記者謝佳真   陽明山的步道眾多，而位於華岡與天母之間的天母古道，每逢假日更是遊人如織。但其中一條翠峰古道，卻是較少人知道的小秘境。只要搭公車在「山仔后站」下車步行一段距離，就能從熱鬧的大學走入幽深的溪谷。 「天母古道」並非單指一條古道，而是水管路步道、半嶺水圳步道與翠峰步道的統稱。其中翠峰古道歷史悠久，在日治之前就是華岡、天母兩地往來的古道。可以選擇從從愛富三街登山口，或是反向自天母圓環上山。 天母水管路步道、半嶺水圳步道跟翠峰步道串成O型，許多人會選擇一日走完。但翠峰步道的路況較為原始，穿梭於狹窄原始林道也頗有樂趣。沿著入口走沒多久就會看到打印台，翠峰，往左前方走會接到水管路步道，往右方的小徑下切，就能去到位於溪谷底的翠峰瀑布。下切的路徑落差較大，而且較為濕滑，建議穿防滑的鞋子前往。 翠峰瀑布位於溪谷底，是步道精華，小巧的翠峰瀑布。墜下的水匯成一窪綠池，與一旁的黃金岩石形成鮮明的對比。這裡的岩石富含鐵鎂礦物，經過水流長期沖刷後，表面逐漸氧化並沈積在石頭表面，形成了金黃溪流的景觀。但這裡並不適合戲水，因為水質並不像看上去那樣純淨。 下到溪谷後，沿著溪流（南磺溪）走，最後會接到猴洞產業道路。除了折返外，遊客唯一的選擇便是再度踏上泥土小徑，走回原始林內。翠峰古道沿途也布滿了管線。有別於水管路步道的大管線，翠峰步道的水管有如細小的血管，攀附在山壁上輸送水源。在濃密的樹林間行走，不時可見到右手邊的黃金溪床。太陽透射入水，黃褐色的岩石與閃耀的溪水彼此輝映。欣賞美景之餘別忘了注意腳下，步道狹窄，經常有崩塌的大石或管線爭道，要小心才能安全通過。 走了好一段在林間的泥土路，步道終點會接到產業道路，翠峰橋就在路旁。現在這裡已經規劃了完善的觀景平台，亦可自行開車或騎車到這裡，由此處進入古道。翠峰橋觀景平台設有木棧道與供人休憩的座椅，很適合在此坐下，靜靜地欣賞金黃的溪流與青綠樹木交錯的美景。翠峰橋觀景平台與附近的慈母橋都是不錯的景點，有不少喜愛攝影的人會來這裡拍攝溪瀑。若愛親近山林，或者單純想拍攝溪流之美，翠峰步道提供了許多彈性的選擇，是夏日健行的好去處。", :address=>"台北市士林區愛富三街12巷", :image=>"http://img3.okgo.tw/titlepic/b3563_1.jpg", :region=>"士林區", :lat=>25.1403585, :lng=>121.5438998, :categories=>["route"]}, {:name=>"芝山文化生態綠園", :description=>"芝山文化生態綠園簡稱「芝山綠園」，佔地四公頃，位於芝山岩山嶺北側，具有地理、歷史、人文、景觀、生態等多方面的獨特性，因此被台北市政府列為二級古蹟並加以保存維護，此地原本為軍事重地，後來經台北市政府規劃，與當地主展館及附屬建物，形成了一座史蹟生態博物園。芝山文化生態綠園是台灣唯一一處發現七個文化層的遺跡，來到這裡彷彿進入了一座秘密花園，園區內的水生池、生態暖房、林間植物區、楓香走廊、布萊得野鳥護育中心都值得您貼身探訪，而台北古城石頭步道、展示館、考古探坑教室穿越時光隧道，可以讓您體會古早的大坌坑文化人、芝山岩文化人、圓山文化人、植物園文化人、十三行文化人、到近代的原住民、清朝漳州人、日本人住過芝山岩的歷史痕跡。營業時間：週二~週日9:00-17:00票價：全票NT$50；優待票NT$30；幼兒及團體票NT$20", :address=>"台北市士林區雨聲街120號", :image=>"http://img3.okgo.tw/titlepic/b2041_2.jpg", :region=>"士林區", :lat=>25.104036, :lng=>121.532685, :categories=>["street_address"]}, {:name=>"台北市立天文科學教育館", :description=>"台北市立天文科學教育館位在台北市士林區，成立於民國八十五年十一月，除了承接台北市天文台的既有業務之外，更新增多項儀器設備。台北市天文科學教育館規劃有展示場、宇宙劇場、立體劇場、宇宙探險及觀測區，並不定期舉行特展。展示的物件包括有古代天文學、太空科技、太陽系、恆星系及宇宙論區，宇宙劇場、立體劇場及宇宙探險則是以IMAX及立體畫面呈現影片內容，觀測室中設有蓋賽格林式反射望遠鏡、庫德式折射望遠鏡及電波望遠鏡，於特定時間開放民眾觀測使用，是台北市區中了解天文奧秘的絕佳場館。", :address=>"台北市士林區基河路363號", :image=>"http://img3.okgo.tw/titlepic/b288_1.jpg", :region=>"士林區", :lat=>25.0958292, :lng=>121.5182994, :categories=>["street_address"]}, {:name=>"圓山水神社", :description=>"_特約記者謝佳真   很難想像在熱鬧的圓山捷運站旁，只要不到十分鐘的步行時間，就能找到一座日式神社遺址！圓山水神社位於自來水公司附近，即「圓山貯水池」旁，日治台灣時，為了提供台北地區水源，日本政府在1928年動工，興建「草山水道」，將陽明山的湧泉往下輸送。圓山水神社便屬於草山水道系統的遺跡之一。 當初興建工程艱辛，過程中有人員因此殉職。日後自來水公司的員工便募款興建了圓山水神社祭祀水神，祈求水道運作順暢，並告慰工程人員在天之靈。以前貯水池因為屬於水源重地不對外開放，功成身退後，2003年7月草山水道系統被指定為市定古蹟，一般民眾遂得以參觀。 圓山水神社雖然不大，但仍具有完整的格局。從表參道拾級而上，依序會經過三層平台：入口處的淨手池、第二層的狛犬，主神社位於第三層。如今所見的水神社並非最初的樣貌，水神社在民國79年因為老舊而重建，保留了大多原始樣貌，並立了新的石碑作紀念。 儘管水神社已非最初面貌，我們現在看到的水神社是根據日治基礎在79年復建，但20幾年畢竟也不是短暫的歲月。走在表參道上，依舊能感受到歷史的餘韻。拾級而上，走到最後一層，神社的主殿就在面前。主殿被濃密的樹叢包圍，在黃昏時只能隱約看到小亭子的紅柱與綠屋簷。回頭望去，走過的道路直直地呈現眼前。走近一看，才發現以為是神社主體的紅柱綠簷，其實只是主殿的「外皮」。真正的神社，是藏在亭子內的石平台上，那小小的、僅有數十公分高的迷你祭祀台。圓山水神社本來是採用日式木造神社的形式，戰後重建才改為中國式的紅柱青瓦亭。而本來祭祀的日本水神，也因為國民政府來台後，實施去日本化政策，改祀中國水神，也就是眾所皆知的大禹。神社雖迷你，卻承載了數十年歷史，也見證了政權的演變。", :address=>"臺北市士林區中山北路5段82號之1（臺北自來水事業處陽明分處旁的後山坡）", :image=>"http://img3.okgo.tw/titlepic/b3561_1.jpg", :region=>"士林區", :lat=>25.0839947, :lng=>121.5263178, :categories=>["establishment", "point_of_interest"]}, {:name=>"圳仔頭溪自然園區", :description=>"「圳仔頭溪自然園區」是2014年7月才新落成的景點，位於陽明山上的平菁街67巷內。「圳仔頭」這個地名是源自於坪頂地區的民眾，原先預定在此開鑿水圳，但因後來水源不足又放棄，「圳仔頭」就因此保留下來。 「圳仔頭溪自然園區」步道全場僅有220公尺，起點為櫻花綠波廣場，終點則是櫻閱亭及粉櫻細雪廣場，台北市政府結合了當地生態、農村文化以及平菁街42巷的賞櫻特色，規劃為此園區，讓旅客賞櫻之餘，更可沿著圳仔頭的河岸風光徐行，享受田園、山景與農村文化的世外桃源風光。", :address=>"台北市士林區平菁街67巷口", :image=>"http://img3.okgo.tw/titlepic/b3245_1.jpg", :region=>"士林區", :lat=>25.1327909, :lng=>121.575006, :categories=>["establishment", "park", "point_of_interest"]}, {:name=>"至德園(臨溪公園)", :description=>"民國84年故宮博物院為美化院區四周及提供遊客及市民一處優質的休憩場所因而建置，公園沿小雙溪闢建，因而稱之為臨溪公園，而後因擴建才又更名為至德園，園內設有一座六角涼亭「望雲亭」，以及種植許多睡蓮，蒼翠的林木更是讓人怡然自得，這裡也經常有許多情侶、新人們為拍攝婚紗而來此取景。", :address=>"士林區自強隧道邊、衛勤學校圍牆", :image=>"http://img3.okgo.tw/titlepic/b295_1.jpg", :region=>"士林區", :lat=>25.0903316, :lng=>121.5487998, :categories=>["route"]}, {:name=>"張大千紀念館", :description=>"張大千紀念館又稱「摩耶精舍」，建於民國65年(西元1976)，這裡為張大千生前的居所，民國72年(西元1983年)病逝後，家屬便照其遺志，將精舍及繪畫收藏品全部捐出，由國立故宮博物院成立紀念館，紀念館保存著張大千先生的故居、奇石盆栽及畫作複製品，但請注意喔！如果想前往參觀，必須打電話向故宮博物院申請，並且安排參觀時間，不然到了那裡是進不去的。", :address=>"台北市士林區至善路2段342巷2號", :image=>"http://img3.okgo.tw/titlepic/b295_1.jpg", :region=>"士林區", :lat=>25.1032616, :lng=>121.5542391, :categories=>["street_address"]}, {:name=>"張大千紀念館", :description=>"張大千紀念館又稱「摩耶精舍」，建於民國65年(西元1976)，這裡為張大千生前的居所，民國72年(西元1983年)病逝後，家屬便照其遺志，將精舍及繪畫收藏品全部捐出，由國立故宮博物院成立紀念館，紀念館保存著張大千先生的故居、奇石盆栽及畫作複製品，但請注意喔！如果想前往參觀，必須打電話向故宮博物院申請，並且安排參觀時間，不然到了那裡是進不去的。", :address=>"台北市士林區至善路2段342巷2號", :image=>"http://img3.okgo.tw/titlepic/b295_1.jpg", :region=>"士林區", :lat=>25.1032616, :lng=>121.5542391, :categories=>["street_address"]}, {:name=>"陽明山平菁街賞櫻", :description=>"陽明山的櫻花一直是台灣櫻花季的領頭羊，二月初便會繽紛綻放，而其中最燦爛的莫過於陽明山平菁街42巷，早期平菁街42巷只是一些攝影愛好者的拍攝秘境，爾後透過網路的傳播，時至今日，則是提到陽明山櫻花不得不造訪的景點之一。 平菁街的櫻花是日本品種的富士櫻，比起台灣山櫻花艷麗的桃紅，是較為柔和的粉紅色，一棵棵粉嫩嫩的櫻花從巷弄民宅的圍牆內向外延伸，繽紛燦爛地向過路旅客招手，吸引眾多遊客來此賞花、拍照，真是滿園春色關不住，大把櫻花竄出來呀～", :address=>"台北市士林區平菁街42巷", :image=>"http://img3.okgo.tw/titlepic/b3004_1.jpg", :region=>"士林區", :lat=>25.1291648, :lng=>121.5708553, :categories=>["route"]}, {:name=>"林語堂故居", :description=>"林語堂故居座落於陽明山山腰，於民國55年(西元1966年)興建，其建築為林語堂先生親自設計，以中國四合院的架構模式，再結合西班牙式的風格來建造，現代與古典相互交錯，只要來到這裡，便會使人覺得這裡靜謐悠閒，而林語堂先生最後10年便定居在此。林語堂是近代知名的學者，才華洋溢，身兼作家、文學家、語言學家、哲學家、旅遊家、發明家等多重身分，因此又有「幽默大師」美名，民國64年(西元1975年)4月1日，林語堂先生辭世，為紀念他的成就，因此在故居內設置了紀念圖書館，除了圖書館功能外，也經常在此舉辦藝文講座，並且提供餐飲休憩等服務。", :address=>"台北市仰德大道2段141號", :image=>"http://img3.okgo.tw/titlepic/b299_1.jpg", :region=>"士林區", :lat=>25.1096504, :lng=>121.5469453, :categories=>["street_address"]}, {:name=>"順益原住民博物館", :description=>"位於士林區的順益原住民博物館，於1994年6月(民國83年)開幕，強眼的外觀採版研材料與圖騰雕飾結合，館內主要以展示台灣原住民之文物為主，並且也致力推動各式活動與研究，讓民眾真正了解台灣的本土文化。", :address=>"台北市士林區至善路2段282號", :image=>"http://img3.okgo.tw/titlepic/b299_1.jpg", :region=>"士林區", :lat=>25.1009689, :lng=>121.5519775, :categories=>["street_address"]}, {:name=>"松園", :description=>"松園座落在士林區箐山路上，成立於民國74年(西元1985年)，園區因大量種植「黑松」與「赤松」而得名，其佔地約七公頃，蒼鬱的林木與空氣清新，為松園帶來了更多的山林禪意，讓人進入這裡不禁自然將繁瑣拋擲腦後，除此，松園也提供戲水區、溪畔林間品茗區、觀瀑區、森林桃戰區、溫泉區、自然解說步道，讓您盡情在這塊天然勝地享受戶外休閒遊憩生活。", :address=>"陽明山箐山路101巷160號", :image=>"http://img3.okgo.tw/titlepic/b299_1.jpg", :region=>"士林區", :lat=>25.1592599, :lng=>121.565832, :categories=>["street_address"]}, {:name=>"福林公園", :description=>"士林區中正路與福林路交會處是一座呈三角形的開放式綜合公園，這裡就是福林公園，公園於民國80年(西元1991年)完工，其佔地面積約2.6公頃，園內設有表演廣場、醒獅亭、花壇、花架、健康步道、公廁等設施，除此之外，園區最具特色的便是藝術雕塑景觀，分別以抽象表現的手法來表現太陽、雲、山、瀑布、水、井等六組來做造景景觀，如您經過這裡，可別忘了停下您的腳步，在此駐足欣賞吧！", :address=>"士林區中山北路與福林路交叉口", :image=>"http://img3.okgo.tw/titlepic/b282_1.jpg", :region=>"士林區", :lat=>25.0937249, :lng=>121.5279064, :categories=>["intersection"]}, {:name=>"錢穆故居", :description=>"錢穆故居原名「素書樓」，民國五十六年，錢穆先生以一代儒宗地位，在政府懇邀之下來到台灣的雙溪定居，素書樓內的花草雅石都是主人多年佈置的心血，步道兩旁的楓樹以及屋後的竹子以及庭園裡的茶花都是錢穆的夫人所栽種。「素書樓」的名字是錢先生無錫七房橋五世同堂之故居，錢先生母親的居所名為「素書堂」，為了感念母親養育之恩因此將其故居命名為「素書樓」，錢先生在「素書樓」講授中國之文化，許多學生一聽就是二十年，學生成為了教授，再帶他的學生來聽，對中國的文化之傳承貢獻良多，也因此講課期間座無虛席。錢穆先生在「素書樓」居住了22年，在96歲時遷出，不幸在同年辭世，爾後「素書樓」因此閒置，民國八十一年元月六日，台北市立圖書館正式將「素書樓」改為紀念館，提供民眾參觀，目前由台北市政府文化局委託東吳大學營運中。", :address=>"臺北市士林區臨溪路72號", :image=>"http://img3.okgo.tw/titlepic/b2696_1.jpg", :region=>"士林區", :lat=>25.0945149, :lng=>121.548041, :categories=>["street_address"]}, {:name=>"錢穆故居", :description=>"錢穆故居原名「素書樓」，民國五十六年，錢穆先生以一代儒宗地位，在政府懇邀之下來到台灣的雙溪定居，素書樓內的花草雅石都是主人多年佈置的心血，步道兩旁的楓樹以及屋後的竹子以及庭園裡的茶花都是錢穆的夫人所栽種。「素書樓」的名字是錢先生無錫七房橋五世同堂之故居，錢先生母親的居所名為「素書堂」，為了感念母親養育之恩因此將其故居命名為「素書樓」，錢先生在「素書樓」講授中國之文化，許多學生一聽就是二十年，學生成為了教授，再帶他的學生來聽，對中國的文化之傳承貢獻良多，也因此講課期間座無虛席。錢穆先生在「素書樓」居住了22年，在96歲時遷出，不幸在同年辭世，爾後「素書樓」因此閒置，民國八十一年元月六日，台北市立圖書館正式將「素書樓」改為紀念館，提供民眾參觀，目前由台北市政府文化局委託東吳大學營運中。", :address=>"臺北市士林區臨溪路72號", :image=>"http://img3.okgo.tw/titlepic/b2696_1.jpg", :region=>"士林區", :lat=>25.0945149, :lng=>121.548041, :categories=>["street_address"]}, {:name=>"仰德一號公園", :description=>"士林區的仰德一號公園就位在至善公園對面(即復興橋下)，雖然園區的面積不大，但環境清幽且設有許多座椅，讓人可以在這裡乘蔭，此外，由這裡也可以進入雙溪河濱公園。", :address=>"台北市仰德大道一段2-1號", :image=>"http://img3.okgo.tw/titlepic/b293_4.jpg", :region=>"士林區", :lat=>25.1033129, :lng=>121.5371451, :categories=>["street_address"]}, {:name=>"志成公園", :description=>"志成公園就位於士林區中正路與雨農路的交會處，公園為一塊長方形的平坦地形，其佔地面積約1.4公頃，庭園以中國式造景為主要的景觀設計，園內綠草如茵，花朵經常爭相綻放，鄰近福林公園、士林官邸與雙溪公園，若您想輕鬆來到這裡，那麼您可以搭乘捷運淡水線於「士林」站下車，再漫步約10來分，即可到達，這裡適合野餐、賞景及帶著孩童來此遊憩。", :address=>"士林區中正路104號旁", :image=>"http://img3.okgo.tw/titlepic/b283_1.jpg", :region=>"士林區", :lat=>25.0961175, :lng=>121.5295032, :categories=>["street_address"]}, {:name=>"夢幻湖", :description=>"夢幻湖生態保護區位於陽明山國家公園內，地理位置在七星山之東南方山麓，海拔約860公尺，湖泊面積約為1970平方公尺，也就是大約一個籃球場的寬度，此地受春、冬兩季東北季風及地形影響，終日雲霧飄渺，景緻迷人，因此命名「夢幻湖」。夢幻湖是一個封閉性的沼澤湖，據學者研究，它的形成源自5600年前，邊坡崩滑偃塞原出水口而形成，早期雨季時湖水深度可達1公尺，並有大量雁鴨棲息，因此又名「鴨池」，而雖然目前雁鴨成群的盛況不再，但陸域鳥類資源極為豐富，竹雞、大灣嘴、紅嘴黑鵯、巨嘴鴨、繡眼畫眉、紅山頭、紅鳩等，皆是此地常見的鳥類，到了冬季也可見到紅隼過境的畫面。除了豐富的鳥類資源以外，夢幻湖也是兩棲類動物的重要棲地，盤谷蟾蜍、台北樹蛙、褐樹蛙、長腳赤蛙、腹斑蛙、面天樹蛙等，也都在此活動，而在1997年發現珍稀的保育類植物「台灣水韭」在此生長，使得夢幻湖聲名大噪，吸引許多學者來到此地研究，但由於近年來環境及氣候影響，以及蓄水能力持續降低，使得湖泊逐漸乾涸，再加上其他人為及外來物種的入侵，讓台灣水韭的生長環境逐漸消失，因此有關單位特別將夢幻湖列入生態保護區，加強遊客的管制與宣導，以減輕遊客對台灣水韭棲地的破壞，並在冷水坑人工濕地中移植台灣水韭，進行培育的工作，期待這珍貴的濕地及珍惜的台灣水韭能夠永續保存。", :address=>"陽明山國家公園", :image=>"http://img3.okgo.tw/titlepic/b1531_1.jpg", :region=>"北投區", :lat=>25.1942462, :lng=>121.5609363, :categories=>["establishment", "park", "point_of_interest"]}, {:name=>"地熱谷", :description=>"位於新北投公園旁的地熱谷，是北投溫泉源頭，又稱「地獄谷」，當地人也有「磺水頭」或「鬼湖」一名，地熱谷是大屯山群區域內水溫最高的溫泉，泉溫約90°～100°，水質清澈，泉質屬「青磺泉」，由於這裡的地質鬆軟，以前經常有民眾失足跌倒被燙傷，因此政府便重新規劃整修，今日的地熱谷，已將池子四周圍上了欄杆，且設有賞景涼亭、親水溝渠設備完善，遊客可在煙霧濛濛的親水溝渠享受泡泡腳的樂趣。", :address=>"中山路靠溫泉路出口", :image=>"http://img3.okgo.tw/titlepic/b1523_1.jpg", :region=>"北投區", :lat=>25.1374018, :lng=>121.5087935, :categories=>["route"]}, {:name=>"農禪寺", :description=>"_特約記者謝佳真   在北投區大業路旁，有一個種著蓮花的大水池。水池的彼方矗立著一座看似美術館的建築，左方一排灰白色的長廊從入口延伸至建築本體，彷彿外牆。 這不是美術館或博物館，而是法鼓山的農禪寺。 農禪寺大量運用清水模建造，清水模是一種亟需技術的建築方式，水泥結構建立後，便不在表面多做修飾，因此我們見到的牆面，就是水泥最原始的樣貌。從旁邊的長廊，到建築本體、經文刻字，都是用清水模製成的。伸手撫摸，便能感受到它的細緻，以及牆面帶著水泥那微微粗糙的觸感。 聖嚴法師當初給建築師姚仁喜的指示很簡單，只有「空中花，水中月」，並將道場命名為水月道場。建築師便依著這個概念，一反傳統佛寺的建築型式，將農禪寺設計成景觀禪寺。為了符合建築宗旨，農禪寺的設計簡單大方而不譁眾取寵，沒有過多的裝飾，道場線條也以簡潔為主。 開山農舍是寺內最早的建築，是最初弘法的歷史見證。農舍被椰子樹圍繞，若不仔細看，很可能會誤以為是當地的辦公室。但這間小屋其實是法鼓山歷史的重要遺跡，以往的佛門弟子都在裡面修行、生活。現在轉變為紀念館，可入內參觀。 道場中有一個特別的設計，建築師將心經的經文鏤空刻在牆面上，當太陽光照射進來，經文的字便會在地面上形成倒影，非常美麗而莊嚴。不過需得等到光線角度正確，才能看到如此景象。 就算不是佛教徒，來農禪寺依然能體會到此地莊嚴與寧靜的宗教氣氛；若是信佛的信眾，在這個空間處處能體會到佛教與現代建築藝術的結合，於各種細節感受佛法的教導。", :address=>"台北市北投區大業路65巷89號", :image=>"http://img3.okgo.tw/titlepic/b3601_1.jpg", :region=>"北投區", :lat=>25.122771, :lng=>121.495846, :categories=>["street_address"]}, {:name=>"北投兒童樂園", :description=>"在日治時期，北投就以溫泉著稱，1939年北投溫泉公共浴場（現今的溫泉博物館）落成後，人潮更是絡繹不絕，而位於正面對的「北投兒童樂園」便是在此時空背景下建造而成，磨石子溜滑梯、盪鞦韆等單純樸實的遊樂設施，是許多北投人小時候的回憶。 時代日益進步，現今許多小孩人手一台智慧型手機、電動遊樂器，北投兒童樂園便逐漸沒落，設施也多老舊損壞，榮景不再。2011年台北市政府便以「整舊、復舊、懷舊」的思維，重新針對「北投兒童樂園」規劃設計，並於2013年完工。如果來到北投地區遊玩、泡溫泉，不妨來此追尋小時候的璞真快樂，或是帶著孩子傳承這份沒有數位電子產品的童年。", :address=>"台北市北投區中山路2號（北投溫泉博物館正對面）", :image=>"http://img3.okgo.tw/titlepic/b2970_1.jpg", :region=>"北投區", :lat=>25.1365766, :lng=>121.5071537, :categories=>["establishment", "museum", "point_of_interest"]}, {:name=>"新北投溫泉", :description=>"新北投溫泉的泉源為大磺嘴溫泉，泉質屬硫酸鹽泉，PH值約為3~4之間，水質呈黃白色半透明，泉水溫度約為50~90℃，帶有些許的硫磺味，北投溫泉自日治時代頗負盛名，瀧乃湯、星乃湯、鐵乃湯是日本人依照溫泉的特性與療效給予的名稱，據說對皮膚病、神經過敏、氣喘、風濕等具有相當的療效，也因此成為了北部最著名的泡湯景點之一。目前北投的溫泉旅館、飯店、會館大部分集中於中山路、光明路沿線以及北投公園及地熱谷附近，總計約有44家，每一家都各有其特色，多樣的溫泉水療以及遊憩設施，提供遊客泡湯養生之場所，而鄰近的景點也是非常值得造訪，例如被列為三級古蹟的三寶銀松閣、逸星乃湯、寶瀧乃湯以及北投第一家溫泉旅館「天狗奄」都有著深遠的歷史背景，而北投親水公園、北投溫泉博物館、臺灣民俗北投文物館、硫磺谷、地熱谷等，更是遊客必遊的景點，來到北投除了可以讓溫泉洗滌您身心的疲憊，亦可了解到北投溫泉豐富的人文歷史。", :address=>"北投泉源路、光明路、中山路及地熱谷附近", :image=>"http://img3.okgo.tw/titlepic/b1526_1.jpg", :region=>"北投區", :lat=>25.13692, :lng=>121.510974, :categories=>["establishment", "lodging", "point_of_interest"]}, {:name=>"七星山步道", :description=>"七星山步道是陽明山國家公園最熱門的步道之一，步道登山口位於「陽明山國家公園」遊客服務中心左側，行走此步道可俯瞰山下美景，步道皆設有解說牌，藉由解說牌可讓遊客對自然生態有更深入的了解，這裡保留了許多台灣原生的物種，尤其是紅楠數量最多，步道入口尚有日據時代慶賀日本裕仁皇太子新婚來台所種植的琉球松、黑松，此間動物生態也極為豐富，實屬一條極具教育與賞玩的親山步道。沿著七星山步道行走可通至「夢幻湖」，面積大約一個籃球場的寬度，裡面卻保留了許多台灣原生物種，例如稀有的台灣水韭、殼精草、七星鱧等，湖邊也可一座解說亭，可供遊客休憩。", :address=>"陽明山國家公園遊客服務中心左側", :image=>"http://img3.okgo.tw/titlepic/b2632_1.jpg", :region=>"北投區", :lat=>25.1860896, :lng=>121.5252407, :categories=>["establishment", "point_of_interest", "travel_agency"]}, {:name=>"陽明書屋", :description=>"陽明書屋舊稱為中興賓館，建於民國五十八至五十九年間，佔地面積為一千兩百坪，是一棟兩層樓高的中式庭園建築，是先總統　蔣公用於接待外賓、主持會議及避暑，可惜的是台灣於民國六十年即推出聯合國，因而從未在此處接待過外賓。　蔣公於民國六十四年逝世後，國民黨黨史委員會將放置於南投草屯「荔園」的黨史資料及辦公室移到此處，擺設國父及蔣公文物，並更名為「陽明書屋」。民國八十六年時國民黨黨史委員會將陽明書屋的管理權捐贈給內政部，並交由陽明山國家公園經營管理，並設置遊客服務站提供導覽解說、影片欣賞及模型展示等服務項目。", :address=>"台北市陽明山中興路12號", :image=>"http://img3.okgo.tw/titlepic/b2407_5.jpg", :region=>"北投區", :lat=>25.1616276, :lng=>121.5389376, :categories=>["establishment", "point_of_interest"]}, {:name=>"陽明山前山公園", :description=>"陽明山前山公園又稱中正公園，位於陽明山仰德大道上，公園內造景古樸典雅，並設有觀光花圃、游泳池及公共浴室，每到了假日這裡總是人潮不斷非常熱鬧，不論是泡湯、泡茶或漫步在步道上，這裡的空氣十分清新，可以在此享受芬多精的洗禮。", :address=>"陽明山前山公園", :image=>"http://img3.okgo.tw/titlepic/b301_1.jpg", :region=>"北投區", :lat=>25.1506826, :lng=>121.5481813, :categories=>["establishment", "park", "point_of_interest"]}, {:name=>"竹子湖", :description=>"海拔約670公尺的竹子湖，早年曾是火山爆發後形成的堰塞湖，湖水退出後留存豐沃的土壤，讓這裡成為一座農村聚落。日據時代引進蓬萊米，在竹子湖的特殊氣候和地形條件相輔下生長良好；民國58間引進白色海芋，讓這裡成為知名的海芋產區，綠意山巒襯上白綠交錯的海芋花田，美不勝收。 竹子湖有著保存良好的自然生態，每年的3、4月正值潔白淡雅的海芋花卉盛產期，漫山遍野的海芋花田景致，令人心曠神怡，除了海芋季之外，輕舞漫遊的螢火蟲也是一大特色～若氣候合宜，正好與螢火蟲季互相搭配，則一次可以欣賞到兩種獨特的風情景致～", :address=>"台北市北投區竹子湖路", :image=>"http://img3.okgo.tw/titlepic/b3843_2.jpg", :region=>"北投區", :lat=>25.1775725, :lng=>121.5570355, :categories=>["route"]}, {:name=>"竹子湖", :description=>"海拔約670公尺的竹子湖，早年曾是火山爆發後形成的堰塞湖，湖水退出後留存豐沃的土壤，讓這裡成為一座農村聚落。日據時代引進蓬萊米，在竹子湖的特殊氣候和地形條件相輔下生長良好；民國58間引進白色海芋，讓這裡成為知名的海芋產區，綠意山巒襯上白綠交錯的海芋花田，美不勝收。 竹子湖有著保存良好的自然生態，每年的3、4月正值潔白淡雅的海芋花卉盛產期，漫山遍野的海芋花田景致，令人心曠神怡，除了海芋季之外，輕舞漫遊的螢火蟲也是一大特色～若氣候合宜，正好與螢火蟲季互相搭配，則一次可以欣賞到兩種獨特的風情景致～", :address=>"台北市北投區竹子湖路", :image=>"http://img3.okgo.tw/titlepic/b3843_2.jpg", :region=>"北投區", :lat=>25.1775725, :lng=>121.5570355, :categories=>["route"]}, {:name=>"國立台北藝術大學", :description=>"「國立台北藝術大學」前身是1982年成立的「國立藝術學院」，於2001年正式更名，共有音樂、美術、戲劇、舞蹈及文化資源五個學院，是全國唯一擁有專業音樂廳、舞蹈廳與戲劇廳的大學院校，更有著台灣第一座校園美術館－「關渡美術館」，建築風格跳脫傳統的對稱比例制約，讓美術館的動線充滿趣味與可能性。 北藝大校園內綠地廣闊，充滿創意的裝置藝術散置校園中，活力且奔放的自由學風讓校園瀰漫的一股濃厚的藝術氣息，而位居高處的校園更是遠眺台北盆地夜景的好所在，三五好友最適合帶點宵夜來此暢談一夜，揮灑熱血的浪漫青春～", :address=>"台北市北投區學園路1號", :image=>"http://img3.okgo.tw/titlepic/b3046_1.jpg", :region=>"北投區", :lat=>25.131911, :lng=>121.468476, :categories=>["street_address"]}, {:name=>"北投溫泉親水公園", :description=>"北投溫泉親水公園位於捷運新北投站往地熱谷方向，以北投溪為中心的親水公園，範圍涵蓋北投公園至地熱谷之間，總面積約有6萬多平方公尺，北投溪在日治時代便有「一之瀧」到「五之瀧」之稱，每個瀧皆是一處露天溫泉池，從公共浴場旁的「一之瀧」至銀星橋後下方的「五之瀧」目前已規劃成三池溫水池、一池冷池及兩池熱水池，熱水池水溫大約是50度至60度之間，其中一池是按摩池，另外在銀星橋下游的大榕樹區的溪流中設有泡腳區，可以讓遊客盡情享受泡湯的樂趣，而圖書館分館到溫泉公共浴場附近的河床較為平坦寬闊，因此規劃為「兒童溫泉親水區」，適合親子戲水，此外建於日治末期的「梅亭」沿北投溪河谷而建，屋內亦設有溫泉池，庭園花草扶疏，古樹參天，目前已被台北市政府指定為「歷史建築」，這裡不但是泡湯的好去處也有著豐富的北投人文歷史。", :address=>"台北市中山路6號", :image=>"http://img3.okgo.tw/titlepic/b1525_1.jpg", :region=>"北投區", :lat=>25.1370232, :lng=>121.5086752, :categories=>["street_address"]}, {:name=>"關渡宮", :description=>"關渡宮因為在靈山頂因此原名為「靈山廟」，創建於清世祖順治十八年(西元1661年)，至今已有近三百五十年的歷史，是北台灣歷史最為悠久的媽祖廟，佔地面積約有兩甲，與北港朝天宮及鹿港天后宮合稱為「台灣三大媽祖廟」，經過多次的修築及擴建成就今日華麗輝煌的關渡宮。關渡宮的裝飾藝術精美，像是木刻、石雕、彩繪及藻井等，皆具有精湛的工藝技術。關渡宮右側有一座約八十公尺的古佛洞，進入佛洞兩旁設有莊嚴的二十八天王像，盡頭則供奉著千手千眼觀世音菩薩，走到出口即可眺望河口秀麗的景緻。", :address=>"台北市北投區知行路360號", :image=>"http://img3.okgo.tw/titlepic/b1528_3.jpg", :region=>"北投區", :lat=>25.118118, :lng=>121.463899, :categories=>["street_address"]}, {:name=>"關渡宮", :description=>"關渡宮因為在靈山頂因此原名為「靈山廟」，創建於清世祖順治十八年(西元1661年)，至今已有近三百五十年的歷史，是北台灣歷史最為悠久的媽祖廟，佔地面積約有兩甲，與北港朝天宮及鹿港天后宮合稱為「台灣三大媽祖廟」，經過多次的修築及擴建成就今日華麗輝煌的關渡宮。關渡宮的裝飾藝術精美，像是木刻、石雕、彩繪及藻井等，皆具有精湛的工藝技術。關渡宮右側有一座約八十公尺的古佛洞，進入佛洞兩旁設有莊嚴的二十八天王像，盡頭則供奉著千手千眼觀世音菩薩，走到出口即可眺望河口秀麗的景緻。", :address=>"台北市北投區知行路360號", :image=>"http://img3.okgo.tw/titlepic/b1528_3.jpg", :region=>"北投區", :lat=>25.118118, :lng=>121.463899, :categories=>["street_address"]}, {:name=>"北投溫泉博物館", :description=>"北投溫泉博物館的前身即是「北投溫泉公共浴場」，早在日據時代就非常受到歡迎，而後歷經時代的變遷，這裡已被列為三級古蹟的溫泉博物館，博物館的外觀有著英國都鐸時期的鄉村風，館內共分二層樓，一樓原為公共浴場，但今日已改為「北投溫泉浴場」、「溫泉浴池」、「台灣及世界溫泉」、「北投石」、「溫泉北投」五個主題展示區，二樓原為貴賓室及休憩空間，現在改為展示「北投溫泉鄉發展史」、「北投社原住民」、「榻榻米活動大廳」、「多媒體視聽室」、「北投產業」、「台灣好萊塢」，倘若您來到北投泡湯，可千萬別錯過這棟歷史悠久的北投溫泉博物館喔！", :address=>"台北市北投區中山路2號", :image=>"http://img3.okgo.tw/titlepic/b1524_1.jpg", :region=>"北投區", :lat=>25.136779, :lng=>121.507372, :categories=>["street_address"]}, {:name=>"關渡自然公園", :description=>"關渡自然公園位在台北盆地關渡平原的西南方，擁有水鳥棲息、沼澤及水筆仔紅樹林，佔地面積達五十七公頃，共分為主要設施區、保育核心區、戶外觀察區及永續經營區，開放民眾入內參觀的區域為主要設施區及戶外觀察區，並針對不同季節的自然生態規劃多項活動。關渡自然公園利用優勢的環境條件在這裡打造不破壞濕地生態的觀察區域，在主要設施區即建有海岸林區、河岸生態區、埤塘生態區、親蟹觀察區及提供導覽解說的自然中心。除了溼地植物外，這裡也吸引多種的水鳥棲息，像是小水鴨、夜鷺、翠鳥、樹鵲及白頭翁等，是充滿溼地珍貴寶藏的生態寶地。", :address=>"台北市北投區關渡路55號", :image=>"http://img3.okgo.tw/titlepic/b1529_3.jpg", :region=>"北投區", :lat=>25.119413, :lng=>121.469241, :categories=>["street_address"]}, {:name=>"關渡自然公園", :description=>"關渡自然公園位在台北盆地關渡平原的西南方，擁有水鳥棲息、沼澤及水筆仔紅樹林，佔地面積達五十七公頃，共分為主要設施區、保育核心區、戶外觀察區及永續經營區，開放民眾入內參觀的區域為主要設施區及戶外觀察區，並針對不同季節的自然生態規劃多項活動。關渡自然公園利用優勢的環境條件在這裡打造不破壞濕地生態的觀察區域，在主要設施區即建有海岸林區、河岸生態區、埤塘生態區、親蟹觀察區及提供導覽解說的自然中心。除了溼地植物外，這裡也吸引多種的水鳥棲息，像是小水鴨、夜鷺、翠鳥、樹鵲及白頭翁等，是充滿溼地珍貴寶藏的生態寶地。", :address=>"台北市北投區關渡路55號", :image=>"http://img3.okgo.tw/titlepic/b1529_3.jpg", :region=>"北投區", :lat=>25.119413, :lng=>121.469241, :categories=>["street_address"]}, {:name=>"台灣民俗北投文物館", :description=>"北投文物館創立於民國10年，前身為「佳山旅館」是當時的高級溫泉旅館，民國26年為日本軍士官俱樂部及神風特攻隊出任務前的渡假所，民國33年由外交部接管並改為「佳山宿舍」，民國73年創辦「台灣民俗北投文物館」，展示台灣民俗文物、台灣原住民文物、傳統服飾織繡等，民國87年經台北市政府指定為「台北市市定古蹟」。目前北投文物館主要建物有文物館及陶然居兩棟，因地處著名的北投溫泉境內，因此自從日治時期以來就林立了許多的溫泉旅館，北投文物館即是當時北投區最高級的旅館，而鄰近的北投溫泉博物館、普濟寺、台銀宿舍、吟松閣旅館都是相當具有歷史性的古蹟建築非常值得順到探訪。北投文物館為台灣現存規模最大的單幢日式純木造建築之一，附屬的陶然居茶藝館則有著濃厚的日式茶室與日式落水庭園風格，而文物館的收藏品約有五千件，包括織品、竹木器、古書、字畫、碑帖、金屬品、陶瓷品、布袋戲偶、皮影戲偶、古箱等，每一件收藏都具有研究參考之價值，另外在文物館旁還有一座禪園，設有茶藝館、中餐廳、溫泉浴室、兒童遊樂園等，來到此地保證可以讓您充實的度過悠閒的時光。", :address=>"北投區幽雅路32號", :image=>"http://img3.okgo.tw/titlepic/b1533_1.jpg", :region=>"北投區", :lat=>25.1381804, :lng=>121.5144826, :categories=>["street_address"]}, {:name=>"慈生宮", :description=>"慈生宮建於明永曆23年(1669)至今已有三百多年歷史，慈生宮主祀五穀先帝，配祀觀音佛祖、天上聖母、福德正神，是北台灣歷史最悠久的寺廟之一，相傳在明朝末年，福建同安、漳州兩縣先民移民來台，當時到處蠻荒，先民為了墾荒，祈求作物豐收以求溫飽，並尋求心靈之寄託，於是在現今的吉利公園內建廟，後來隨著信徒的增多，於是在光緒年間遷至現址(立農街一段321弄)，在前後經過六次的改建之後，奠定目前的規模。早期先民生活困苦，慈生宮不僅是當地居民的信仰中心，也是居民治療病痛的地方，先民如有身體不適便會向神農大帝祈求藥籤治病，據說相當的靈驗，若您來到北投這個地方，也不妨順道來此參拜這歷史悠久的古廟吧！", :address=>"立農街1段321號", :image=>"http://img3.okgo.tw/titlepic/b1527_1.jpg", :region=>"北投區", :lat=>25.1196844, :lng=>121.5070204, :categories=>["street_address"]}, {:name=>"慈生宮", :description=>"慈生宮建於明永曆23年(1669)至今已有三百多年歷史，慈生宮主祀五穀先帝，配祀觀音佛祖、天上聖母、福德正神，是北台灣歷史最悠久的寺廟之一，相傳在明朝末年，福建同安、漳州兩縣先民移民來台，當時到處蠻荒，先民為了墾荒，祈求作物豐收以求溫飽，並尋求心靈之寄託，於是在現今的吉利公園內建廟，後來隨著信徒的增多，於是在光緒年間遷至現址(立農街一段321弄)，在前後經過六次的改建之後，奠定目前的規模。早期先民生活困苦，慈生宮不僅是當地居民的信仰中心，也是居民治療病痛的地方，先民如有身體不適便會向神農大帝祈求藥籤治病，據說相當的靈驗，若您來到北投這個地方，也不妨順道來此參拜這歷史悠久的古廟吧！", :address=>"立農街1段321號", :image=>"http://img3.okgo.tw/titlepic/b1527_1.jpg", :region=>"北投區", :lat=>25.1196844, :lng=>121.5070204, :categories=>["street_address"]}, {:name=>"貴子坑五指山層", :description=>"北投貴子坑環境清幽，主要是由約在3000萬至2400萬年前所形成的「五指山層」構成，而「五指山層」為內含高嶺土的粒粒砂岩，是製造陶瓷工業的主要原料，因此貴子坑曾經是北部有名的礦場。但也因為大量開採，貴子坑的表面已經完全流失，下大雨常造成重大災害。 因此於民國69年起，貴子坑透過規劃為水土保持教學園區，開放民眾參觀，了解水土保持的重要性。園區入口左側就可以見到「五指山層」特殊的地質景觀，上層是五指山層在造山運動推擠下，所形成的「褶曲」岩層，而上層則是80萬年前由大屯火山群噴發形成的火成岩，如此獨特的地層線象，讓貴子坑成為台北市近郊天然的地質教室。", :address=>"臺北市北投區秀山路161號（貴子坑水土保持教學園區）", :image=>"http://img3.okgo.tw/titlepic/b3290_1.jpg", :region=>"北投區", :lat=>25.151792, :lng=>121.4937146, :categories=>["establishment", "point_of_interest"]}, {:name=>"凱達格蘭文化館", :description=>"四百多年前，「北投」是原住民–凱達格蘭族人的生活居住地，而「北投」這個地名就是由凱達格蘭族語所音譯過來，即「女巫」的意思。因此為了要記錄平埔族相關的歷史脈絡，以及規劃當代原住民的藝術與文化的展演空間，台北市政府特地選在北投地區建造了「凱達格蘭文化館」，做為展示及研習原住民文化藝術的場所。 凱達格蘭文化館透過地勢的概念，規劃出「明亮之海（B1）」、「廣遼之原（1F）」、「陸上尋古（2F）」、「萬山凝聚（3F）」共四層樓的「文物展示空間」，而四樓到九樓的「展演及研習空間」則規劃有研習教室與原住民主題圖書館供民眾參與展覽、瀏覽藏書。透過「凱達格蘭文化館」建置，除了讓都市原住民能有機會接觸、學習原住民的傳統文化藝術之外，也讓民眾來到北投除了洗溫泉，還能循著霧氣瀰漫的溫泉小徑，找尋台灣平埔族原住民的工藝與文化。", :address=>"台北市北投區中山路3-1號", :image=>"http://img3.okgo.tw/titlepic/b2984_1.jpg", :region=>"北投區", :lat=>25.137067, :lng=>121.5057882, :categories=>["street_address"]}, {:name=>"貴子坑水土保持教學園區", :description=>"「貴子坑水土保持教學園區」位於台灣北投區，園區內擁有台北地區最古老的五指山層，岩層中含有純度極高的高嶺土、石英砂，為製造陶瓷與玻璃的主要工業原料。也因此，貴子坑山區曾被瓷土業者大量開採工業砂岩，磨碎後再用溪水淘洗瓷土，地表遭受到嚴重的破壞，溪流凌亂且礦渣處處，當地居民稱此為「鬼子坑」，後來為求好聽，便取其諧音為「貴子坑」。 貴子坑採土區因地表遭受破壞，每逢下雨時節便會沖下大量土石，使得下游地區民眾生命財產受到莫大威脅。從民國69年起，北市政府就陸續辦理貴子坑溪、水磨坑溪的整治工程與水土保持工作。園區內大量栽種植物，將光禿禿的山頭進行綠化，並設有降雨沖蝕槽、氣象觀測坪、露營區、五指山層地層教學、地質觀察棧道、親山步道等設施，要讓民眾參觀之餘也能記取土地反撲的教訓，更加愛護共同居住的大地。", :address=>"臺北市北投區秀山路161號", :image=>"http://img3.okgo.tw/titlepic/b190_1.jpg", :region=>"北投區", :lat=>25.1517678, :lng=>121.4937582, :categories=>["street_address"]}, {:name=>"北投公民會館", :description=>"北投公民會館交通便捷，位於新北投捷運站步行約10-15分鐘即可抵達，鄰近溫泉博物館、北投公園、公共溫泉浴池等等景點。規劃有一約40坪的主展館，以及約27坪的側展室，會不定期舉辦各式各樣的藝文展覽，也提供給一般民眾申請辦理繪畫、攝影、陶藝等展覽活動。戶外則設有296坪的綠色庭園，週末假日相當適合親子一同來此遊玩、欣賞風景。", :address=>"台北市北投區中山路5之7號", :image=>"http://img3.okgo.tw/titlepic/b2977_1.jpg", :region=>"北投區", :lat=>25.137104, :lng=>121.508057, :categories=>["street_address"]}, {:name=>"北投公民會館", :description=>"北投公民會館交通便捷，位於新北投捷運站步行約10-15分鐘即可抵達，鄰近溫泉博物館、北投公園、公共溫泉浴池等等景點。規劃有一約40坪的主展館，以及約27坪的側展室，會不定期舉辦各式各樣的藝文展覽，也提供給一般民眾申請辦理繪畫、攝影、陶藝等展覽活動。戶外則設有296坪的綠色庭園，週末假日相當適合親子一同來此遊玩、欣賞風景。", :address=>"台北市北投區中山路5之7號", :image=>"http://img3.okgo.tw/titlepic/b2977_1.jpg", :region=>"北投區", :lat=>25.137104, :lng=>121.508057, :categories=>["street_address"]}, {:name=>"大湖公園", :description=>"大湖公園位於內湖區成功路五段，白鷺山東側，佔地約有13公頃，因湖泊經常白鷺成群因此別名「白鷺湖」，園內擁有3座游泳池，其中一座為溫水游泳池，並且增加了蒸氣室、滑水道、烤箱、更衣室、身心障礙專用廁所及殘障入水椅等設施，大湖公園仿中國式庭園興建，湖泊面積約10公頃餘，湖中佇立一座中國式涼亭，站立亭中湖光山色一覽無遺，而錦帶橋是大湖公園著名的地標，早期拍攝電視劇均在此取景。除了美輪美奐的庭園景觀以外，園區內還種植了多樣的植物，依時序開花，讓一年四季的大湖公園都生氣蓬勃，遊客可在此遊園賞景，遠離都市塵囂，感受悠閒的氛圍，也可安排垂釣、野餐、水上模型船及直排溜冰等活動，是一處適合全家一同出遊的最佳休憩點。", :address=>"內湖區成功路5段31號", :image=>"http://img3.okgo.tw/titlepic/b1534_6.jpg", :region=>"內湖區", :lat=>25.0827671, :lng=>121.6039154, :categories=>["street_address"]}, {:name=>"內湖復育園區", :description=>"內湖復育園區位於台北市內湖區基隆河右岸，原本是一座垃圾掩埋場，佔地約有15.5公頃，大量堆積垃圾形成小山而被稱為垃圾山，因垃圾沼氣自燃引起多次大火，產生空氣問題與危險而停用。掩埋場關閉後，垃圾已占用基隆河行水區，台北市政府花費八年時間清除垃圾山並將環境改造成公園綠地。2014年聯合國和平使者珍‧古德與國際扶輪社響應此垃圾清除復育，捐贈1600株台灣原生植物樹苗以及多座裝置藝術給台北市政府應用於公園內，並於2016年五月內湖復育園區正式啟用，", :address=>"台北市內湖區潭美街587號", :image=>"http://img3.okgo.tw/titlepic/b3903_1.jpg", :region=>"內湖區", :lat=>25.0611664, :lng=>121.603557, :categories=>["street_address"]}, {:name=>"碧湖公園", :description=>"碧湖公園位於內湖區內湖路二段復興劇校旁，其佔地面積約16公頃，早期這裡又稱「內湖大埤」，做為為農業灌溉用湖泊，民國76年興建開發為公園，而後便陸續增建公園內多處設施及美化綠地工程。慢步於湖畔步道旁，湖光山色映入眼簾，每當看見白鷺鷥劃過湖面覓食，心中總有說不出的驚喜，而湖畔垂釣的大叔，我看見他們的嘴角微微上揚，像是不亦樂乎般，公園內也設有游泳池、網球場、健康運動園地、九曲橋、觀景亭、步道、閱覽室、兒童遊戲區、雕塑等多項設施，這裡更成為遊客及當地居民休憩的最佳場所。", :address=>"台北市內湖路二段復興劇校旁", :image=>"http://img3.okgo.tw/titlepic/b434_1.jpg", :region=>"內湖區", :lat=>25.0821882, :lng=>121.5865591, :categories=>["establishment", "point_of_interest", "school", "university"]}, {:name=>"碧湖公園", :description=>"碧湖公園位於內湖區內湖路二段復興劇校旁，其佔地面積約16公頃，早期這裡又稱「內湖大埤」，做為為農業灌溉用湖泊，民國76年興建開發為公園，而後便陸續增建公園內多處設施及美化綠地工程。慢步於湖畔步道旁，湖光山色映入眼簾，每當看見白鷺鷥劃過湖面覓食，心中總有說不出的驚喜，而湖畔垂釣的大叔，我看見他們的嘴角微微上揚，像是不亦樂乎般，公園內也設有游泳池、網球場、健康運動園地、九曲橋、觀景亭、步道、閱覽室、兒童遊戲區、雕塑等多項設施，這裡更成為遊客及當地居民休憩的最佳場所。", :address=>"台北市內湖路二段復興劇校旁", :image=>"http://img3.okgo.tw/titlepic/b434_1.jpg", :region=>"內湖區", :lat=>25.0821882, :lng=>121.5865591, :categories=>["establishment", "point_of_interest", "school", "university"]}, {:name=>"碧湖公園", :description=>"碧湖公園位於內湖區內湖路二段復興劇校旁，其佔地面積約16公頃，早期這裡又稱「內湖大埤」，做為為農業灌溉用湖泊，民國76年興建開發為公園，而後便陸續增建公園內多處設施及美化綠地工程。慢步於湖畔步道旁，湖光山色映入眼簾，每當看見白鷺鷥劃過湖面覓食，心中總有說不出的驚喜，而湖畔垂釣的大叔，我看見他們的嘴角微微上揚，像是不亦樂乎般，公園內也設有游泳池、網球場、健康運動園地、九曲橋、觀景亭、步道、閱覽室、兒童遊戲區、雕塑等多項設施，這裡更成為遊客及當地居民休憩的最佳場所。", :address=>"台北市內湖路二段復興劇校旁", :image=>"http://img3.okgo.tw/titlepic/b434_1.jpg", :region=>"內湖區", :lat=>25.0821882, :lng=>121.5865591, :categories=>["establishment", "point_of_interest", "school", "university"]}, {:name=>"碧湖公園", :description=>"碧湖公園位於內湖區內湖路二段復興劇校旁，其佔地面積約16公頃，早期這裡又稱「內湖大埤」，做為為農業灌溉用湖泊，民國76年興建開發為公園，而後便陸續增建公園內多處設施及美化綠地工程。慢步於湖畔步道旁，湖光山色映入眼簾，每當看見白鷺鷥劃過湖面覓食，心中總有說不出的驚喜，而湖畔垂釣的大叔，我看見他們的嘴角微微上揚，像是不亦樂乎般，公園內也設有游泳池、網球場、健康運動園地、九曲橋、觀景亭、步道、閱覽室、兒童遊戲區、雕塑等多項設施，這裡更成為遊客及當地居民休憩的最佳場所。", :address=>"台北市內湖路二段復興劇校旁", :image=>"http://img3.okgo.tw/titlepic/b434_1.jpg", :region=>"內湖區", :lat=>25.0821882, :lng=>121.5865591, :categories=>["establishment", "point_of_interest", "school", "university"]}, {:name=>"成美左岸河濱公園", :description=>"「成美左岸河濱公園」位於基隆河成宮橋至麥帥一橋間(南港側)，與對岸的成美右岸河濱公園是兩作用燈光銜接起來的光之水廊。台北市政府會依照不同的季節於公園內種植大面積的花海，充滿驚喜。由於基隆河整治有成，魚種眾多，黃昏於此散步有機會看到魚群集體躍出水面的景象。公園內設置有籃球場、健身單槓區以及輕食區，從彩虹橋旁4號水門進入市區更可連接台北市著名的饒河夜市以及香火鼎盛的慈祐宮。", :address=>"115 台北市南港區基隆河左岸成功橋至麥帥一橋間", :image=>"http://img3.okgo.tw/titlepic/b3758_8.jpg", :region=>"南港區", :lat=>25.053946, :lng=>121.58638, :categories=>["establishment", "park", "point_of_interest"]}, {:name=>"南港公園", :description=>"南港公園位於南港區東新街與成福路交接口處，其佔地面積約15公頃，進入南港公園前，您就可以看到亮麗的中國式牌樓矗立在眼前，公園內山水風光更是美的不在話下，連鳥兒與昆蟲都樂於在此棲息，除了擁有豐富的自然生態景觀，公園也設置了網球場、籃球場、音樂露台、兒童遊戲場、觀景亭、林間步道、公廁、停車場，就是要提供市民一處設施完善的休憩好去處。", :address=>"南港區成福路、東新街170號", :image=>"http://img3.okgo.tw/titlepic/b437_1.jpg", :region=>"南港區", :lat=>25.040905, :lng=>121.588232, :categories=>["establishment", "health", "pharmacy", "point_of_interest", "store"]}, {:name=>"中研院胡適紀念館", :description=>"胡適紀念館區包念了故居、陳列室及胡適公園三個部分，民國51年(西元1962年)故中研院院長胡適博士病逝，中研院為紀念故院長胡適先生，便將他的故居設計為紀念館，又由於胡適先生非常照顧南港地區，當地居民為感念他，便開闢了胡適公園，故居的擺設是依照胡適先生生前的陳列方式，而陳列室則展示先生的遺物文稿，沿著靜謐的公園石階步道向上行，讓人的視野更加寬闊，這裡的一切都要人時時遵循前人風範。", :address=>"台北市南港區研究院路2段128號", :image=>"http://img3.okgo.tw/titlepic/b435_2.jpg", :region=>"南港區", :lat=>25.042674, :lng=>121.6120418, :categories=>["establishment", "food", "point_of_interest", "premise"]}, {:name=>"中研院胡適紀念館", :description=>"胡適紀念館區包念了故居、陳列室及胡適公園三個部分，民國51年(西元1962年)故中研院院長胡適博士病逝，中研院為紀念故院長胡適先生，便將他的故居設計為紀念館，又由於胡適先生非常照顧南港地區，當地居民為感念他，便開闢了胡適公園，故居的擺設是依照胡適先生生前的陳列方式，而陳列室則展示先生的遺物文稿，沿著靜謐的公園石階步道向上行，讓人的視野更加寬闊，這裡的一切都要人時時遵循前人風範。", :address=>"台北市南港區研究院路2段128號", :image=>"http://img3.okgo.tw/titlepic/b435_2.jpg", :region=>"南港區", :lat=>25.042674, :lng=>121.6120418, :categories=>["establishment", "food", "point_of_interest", "premise"]}, {:name=>"中研院胡適紀念館", :description=>"胡適紀念館區包念了故居、陳列室及胡適公園三個部分，民國51年(西元1962年)故中研院院長胡適博士病逝，中研院為紀念故院長胡適先生，便將他的故居設計為紀念館，又由於胡適先生非常照顧南港地區，當地居民為感念他，便開闢了胡適公園，故居的擺設是依照胡適先生生前的陳列方式，而陳列室則展示先生的遺物文稿，沿著靜謐的公園石階步道向上行，讓人的視野更加寬闊，這裡的一切都要人時時遵循前人風範。", :address=>"台北市南港區研究院路2段128號", :image=>"http://img3.okgo.tw/titlepic/b435_2.jpg", :region=>"南港區", :lat=>25.042674, :lng=>121.6120418, :categories=>["establishment", "food", "point_of_interest", "premise"]}, {:name=>"台北動物園(木柵動物園)", :description=>"木柵動物園位在台北市文山區，於民國七十五年正式對外開放，佔地面積182公頃，依照地形景觀及生態展示法，讓動物居住在類似的原始環境中，是目前亞洲最大的動物園。動物園分為戶外展示區及室內展示館，包括有台灣鄉土動物區、兒童動物園區、澳洲動物園區、大熊貓館、昆蟲館、無尾熊館及企鵝館等十五個展示區，並於平假日舉行各式講座及解說活動，園區中也針對動物設計可愛的商品供遊客選購，是相當適合假日全家出遊的好去處。園區由於腹地廣大，除了動物展示區外，另有野餐區、野外動物植物觀察區及青少年體能鍛鍊場，遊客在觀賞動物同時享受登山健行、欣賞自然風光之趣，為民眾提供豐富的知性遊憩的最佳休閒處【開放時間】　園區步道　9:00~17:00（16:00停止入園）　動物展示　9:00~16:30　教育中心　9:00~17:00（16:30停止入館）　圖書館　　9:30~16:30【參觀票價】　入園門票　全票60元／優待票30元　※悠遊卡、現金購票　　教育中心　全票20元／優待票10元　※現金（不找零）購票　園區專車　全票5元　　　　　　　※悠遊卡、現金（不找零）購票※快速入園：刷悠遊卡入園，可節省排隊購票時間。1、全票：適用一般成人。2、優待票：國小以上兒童、持證之學生（在學）、軍警、低收入戶者。3、免費；適學齡前兒童、身心殘障者與陪同一人、台北市公私立學校參觀、原住民55歲以上長者、65歲以上年長者以及持兒童護照、退休證明、榮民、北市義消、觀光局導遊證者。【遊園接駁】　遊客列車：列車總站(16:30末班車)←→鳥園站(17:00末班車)　貓纜接駁巴士：鳥園站(16:40末班車)←→貓纜動物園內站(16:00末班車)　※備註：　1.貓空纜車相關公告及旅遊資訊敬請參考捷運公司「貓空纜車網站」。　2.往返「列車總站」與「貓纜動物園內站」，可於「鳥園車站」轉乘(請依引導路線轉乘，無需出站)。【營業時間】服務時間：週一至週日上午9:00至下午5:00(農曆除夕休園一天)園區內各館公休時間，請參考動物園官網。", :address=>"台北市文山區新光路2段30號", :image=>"http://img3.okgo.tw/titlepic/b440_29.jpg", :region=>"文山區", :lat=>24.9983469, :lng=>121.5810358, :categories=>["street_address"]}, {:name=>"貓空纜車", :description=>"貓空纜車為台北市第一個觀光休憩纜車，採用法國POMA公司生產的單線自動循環式纜車系統，總長4030公尺。目前纜車路線設有四個運輸站(動物園站、園內站、指南宮站、貓空站)以及二個轉角站(不提供乘客上下車)，單程行車時間約17分鐘。貓空纜車系統由台北市政府規劃興建，台北市政府新建工程處負責興建，目前委由台北大眾捷運股份有限公司經營。已於2007年7月4日正式通車營運。票價(可使用悠遊卡購票)：※單程全票：1站30元、2站40元、3站50元。※單程優待票：65歲以上老人及身障者和必要陪伴者1人，可享半價。※單程團體票：10人以上8折；40人以上7折。※6歲以下之孩童由已購票之成人陪伴者，以二人為限，可免費搭乘。開放時間※平常日：09:00至22:00※國定及星期例假日：08:30至22:00（動物園站末班車為21:30分發車，貓空站末班車為22:00分發車）", :address=>"台北市木柵動物園至貓空地區", :image=>"http://img3.okgo.tw/titlepic/b2719_1.jpg", :region=>"文山區", :lat=>24.9971583, :lng=>121.5851509, :categories=>["establishment", "point_of_interest", "zoo"]}, {:name=>"指南宮", :description=>"指南宮位在台北市文山區木柵郊區，創建於清光緒十六年(西元1890年)，指南宮取名意為「呂恩主在天庭居於南宮」、「濟世度人必須要指南針」，主祀神祇為呂洞賓(呂恩主)，並供奉有玉皇大帝、孔子及觀世音菩薩等神祇，是為儒道佛三教合體的廟宇。外觀富麗堂皇，主體建築有凌霄寶殿、山西呂聖尊寶殿、大雄寶殿及大成殿等裝飾工藝精湛的殿堂，四周還建有自在茶亭、園真池、登山步道及南天門等景觀，風景秀麗吸引許多信徒到此祭拜健行。指南宮還有個有趣的傳說，相傳只要情侶到指南宮便會分手，據說當年呂洞賓追求不成何仙姑，並不喜見情侶，因而指南宮就成了情侶約會的的禁地。", :address=>"台北市文山區萬壽路115號", :image=>"http://img3.okgo.tw/titlepic/b439_1.jpg", :region=>"文山區", :lat=>24.9798453, :lng=>121.5866321, :categories=>["street_address"]}, {:name=>"木柵貓空茶園", :description=>"木柵貓空茶園以文山包種茶及鐵觀音為主，滿山遍谷的綠意茶園形成優美的景緻，貓空上有著多家不同風格的茶藝館，日間可到此登山健行賞翠綠茶園，晚間則可與三五好友到此品茗談天，山下燈火點點的夜景更是迷人。因貓空鄰近學校單位，因此也成為許多莘莘學子的聚會場所，為貓空增添多許年輕活潑的氣息。", :address=>"台北市文山區指南路2、3段一帶 ", :image=>"http://img3.okgo.tw/titlepic/b438_13.jpg", :region=>"文山區", :lat=>24.9763979, :lng=>121.58796, :categories=>["street_address"]}, {:name=>"木柵貓空茶園", :description=>"木柵貓空茶園以文山包種茶及鐵觀音為主，滿山遍谷的綠意茶園形成優美的景緻，貓空上有著多家不同風格的茶藝館，日間可到此登山健行賞翠綠茶園，晚間則可與三五好友到此品茗談天，山下燈火點點的夜景更是迷人。因貓空鄰近學校單位，因此也成為許多莘莘學子的聚會場所，為貓空增添多許年輕活潑的氣息。", :address=>"台北市文山區指南路2、3段一帶 ", :image=>"http://img3.okgo.tw/titlepic/b438_13.jpg", :region=>"文山區", :lat=>24.9763979, :lng=>121.58796, :categories=>["street_address"]}, {:name=>"木柵貓空茶園", :description=>"木柵貓空茶園以文山包種茶及鐵觀音為主，滿山遍谷的綠意茶園形成優美的景緻，貓空上有著多家不同風格的茶藝館，日間可到此登山健行賞翠綠茶園，晚間則可與三五好友到此品茗談天，山下燈火點點的夜景更是迷人。因貓空鄰近學校單位，因此也成為許多莘莘學子的聚會場所，為貓空增添多許年輕活潑的氣息。", :address=>"台北市文山區指南路2、3段一帶 ", :image=>"http://img3.okgo.tw/titlepic/b438_13.jpg", :region=>"文山區", :lat=>24.9763979, :lng=>121.58796, :categories=>["street_address"]}, {:name=>"野柳風景區（野柳地質公園）", :description=>"野柳風景區位在台北縣萬里鄉野柳村，是北台灣著名的觀光景點，野柳為沿海地區突出海面的岬角，主要構成物質為砂岩，在海水經年累月的沖刷侵蝕之下，自然而然形成許多天然岩石，像是最為人熟知的女王頭、仙履鞋、蜂窩岩、象石、豆腐岩及海蝕壺穴等特殊地質景觀。此外，還有中新世淺海生物的化石及生痕化石，包括星狀生痕化石、海草痕及疣壁蛇形管痕等，可稱得上是世界奇觀，相當具有教育功能。", :address=>"新北市萬里區野柳里港東路167-1號", :image=>"http://img3.okgo.tw/titlepic/b465_1.jpg", :region=>"萬里區", :lat=>25.2038942, :lng=>121.6883111, :categories=>["street_address"]}, {:name=>"野柳風景區（野柳地質公園）", :description=>"野柳風景區位在台北縣萬里鄉野柳村，是北台灣著名的觀光景點，野柳為沿海地區突出海面的岬角，主要構成物質為砂岩，在海水經年累月的沖刷侵蝕之下，自然而然形成許多天然岩石，像是最為人熟知的女王頭、仙履鞋、蜂窩岩、象石、豆腐岩及海蝕壺穴等特殊地質景觀。此外，還有中新世淺海生物的化石及生痕化石，包括星狀生痕化石、海草痕及疣壁蛇形管痕等，可稱得上是世界奇觀，相當具有教育功能。", :address=>"新北市萬里區野柳里港東路167-1號", :image=>"http://img3.okgo.tw/titlepic/b465_1.jpg", :region=>"萬里區", :lat=>25.2038942, :lng=>121.6883111, :categories=>["street_address"]}, {:name=>"野柳海洋世界", :description=>"野柳海洋世界規劃有海洋生物展示館、海洋生態教室、海洋生物標本及動物表演，全長一百多公尺的水族箱中有著多種海洋生物，還有可讓小朋友動手的觸摸池，館中也收藏了罕見的深海動物骨架及標本。除了靜態的展示之外，還有驚險刺激的高空跳水表演，以及海獅、海豚與擬虎鯨的精采演出，不論跳躍、水中芭雷、呼拉圈或是頂球都難不倒牠們唷！", :address=>"萬里鄉野柳村港東路167-3號", :image=>"http://img3.okgo.tw/titlepic/b466_1.jpg", :region=>"萬里區", :lat=>25.205185, :lng=>121.69136, :categories=>["aquarium", "establishment", "point_of_interest"]}, {:name=>"西濱公路觀海休憩步道", :description=>"「西濱公路觀海休憩步道」位於萬里的獅子公園旁，步道平穩好走，不僅可以欣賞到一望無際的海平面，還可遠眺基隆嶼及野柳岬，沿途海蝕平台與奇岩異石更是天然的地理教室，相當適合親子共遊，順道欣賞豐富多元的海洋生物與農家採集海菜的人文生態。", :address=>"新北市萬里村北部濱海公路台2線52公里處", :image=>"http://img3.okgo.tw/titlepic/b3216_1.jpg", :region=>"萬里區", :lat=>25.2175353, :lng=>121.6392111, :categories=>["street_address"]}, {:name=>"翡翠灣", :description=>"翡翠灣介於金山與基隆間，佔地十分寬廣，是北海岸規劃最完整的海濱渡假遊樂區，內部除了規劃有住宿區、露營區、海水浴場……，海水浴場上還可體驗水上摩托車、風浪板、快艇、帆船、拖曳傘等有趣多樣的水上活動，多元的休憩新選擇，肯定讓您帶著滿滿的記憶回家。", :address=>"萬里鄉翡翠路1-1號", :image=>"http://img3.okgo.tw/titlepic/b468_1.jpg", :region=>"萬里區", :lat=>25.190928, :lng=>121.6831569, :categories=>["street_address"]}, {:name=>"翡翠灣", :description=>"翡翠灣介於金山與基隆間，佔地十分寬廣，是北海岸規劃最完整的海濱渡假遊樂區，內部除了規劃有住宿區、露營區、海水浴場……，海水浴場上還可體驗水上摩托車、風浪板、快艇、帆船、拖曳傘等有趣多樣的水上活動，多元的休憩新選擇，肯定讓您帶著滿滿的記憶回家。", :address=>"萬里鄉翡翠路1-1號", :image=>"http://img3.okgo.tw/titlepic/b468_1.jpg", :region=>"萬里區", :lat=>25.190928, :lng=>121.6831569, :categories=>["street_address"]}, {:name=>"海王星遊艇樂園", :description=>"海王星遊艇樂園(海王星樂園)位於野柳風景區右側，園內備有海景1號、海景6號玻璃底遊艇可欣賞軟珊瑚礁、海靈芝、熱帶魚等海底奇妙景觀，海翔號快艇則可載您到外海奔馳，讓你High到最高點！另外，野柳海岸擁有豐富多變特殊地形，舉凡奇岩嶙峋，單面山、海蝕平台、海蝕凹壁等等，是週休假日出遊休憩的最佳去處。註：據交通部觀光局網站，海王星遊艇樂園目前為暫停營業。", :address=>"台北縣萬里鄉野柳村港東路162-17號", :image=>"http://img3.okgo.tw/titlepic/b464_9.jpg", :region=>"萬里區", :lat=>25.2040996, :lng=>121.6904673, :categories=>["establishment", "food", "point_of_interest", "restaurant"]}, {:name=>"獅子公園、紫菜坪", :description=>"獅子公園及紫菜坪位在台北縣萬里鄉，獅子公園約在北海岸台２線５２公里處，是由蘇澳國際獅子會所建，入口處有座意象石雕是民眾喜愛拍照的地點，公園沿岸有著礁岩、海藻生物及海濱風光，晨曦與黃昏皆倒映出不同的色澤景致，美景宜人，吸引許多情侶前來並肩約會，而紫菜坪在假日時有眾多釣客造訪，是垂釣的好地點。", :address=>"新北市萬里區台2線", :image=>"http://img3.okgo.tw/titlepic/b1562_1.jpg", :region=>"萬里區", :lat=>25.2087748, :lng=>121.651216, :categories=>["route"]}, {:name=>"金山磺潭社區・觀海健康步道", :description=>"位於萬里區員潭溪及磺溪的交界處，因此取名為「磺潭社區」，這裡的自然環境清新、山明水秀，是個純樸而溫暖的農村。裡頭有一處「觀海健康步道」，全長約有1.1公里，緩緩步行而上可至山頂的觀海亭，遼闊的視野令人驚嘆！不但可俯瞰金山的神祕海岸，還可遠眺燭臺雙嶼與員潭溪出海口，壯麗的景色絕對值得您登高體驗。", :address=>"新北市萬里區員潭路6之2號", :image=>"http://img3.okgo.tw/titlepic/b3648_1.jpg", :region=>"萬里區", :lat=>25.2002068, :lng=>121.6463618, :categories=>["street_address"]}, {:name=>"金山磺潭社區・觀海健康步道", :description=>"位於萬里區員潭溪及磺溪的交界處，因此取名為「磺潭社區」，這裡的自然環境清新、山明水秀，是個純樸而溫暖的農村。裡頭有一處「觀海健康步道」，全長約有1.1公里，緩緩步行而上可至山頂的觀海亭，遼闊的視野令人驚嘆！不但可俯瞰金山的神祕海岸，還可遠眺燭臺雙嶼與員潭溪出海口，壯麗的景色絕對值得您登高體驗。", :address=>"新北市萬里區員潭路6之2號", :image=>"http://img3.okgo.tw/titlepic/b3648_1.jpg", :region=>"萬里區", :lat=>25.2002068, :lng=>121.6463618, :categories=>["street_address"]}, {:name=>"保安宮", :description=>"野柳保安宮位於野柳漁港旁，祀奉「開漳聖君」、「媽祖」、「周倉將軍」和「土地公」等神明，是當地居民的信仰中心，相傳清嘉慶二十五年(西元1820年)，野柳居民在外海捕漁，海上突然出現一艘船，上頭載滿了許多建材及一尊神像，村民便將船隻引回野柳，並查詢神像確定為「開漳聖王陳元光將軍」，便開始用其材料來建廟供奉，保安宮每年農曆正月十五日，都會舉行「神明淨港過火繞境」儀式，此儀式不但為全台灣獨一無二的宗教民俗活動，更有一個傳奇的起源，據說，開漳聖王有一天透過乩童告訴村民，「想在元宵當天下港」，至此之後，元宵節就會由年輕力壯的信徒抬著開漳聖王、媽祖、周倉和土地公跳入海中遶游淨港，每年總會有大批的信眾到此參訪。", :address=>"萬里鄉野柳村港東路65-1號", :image=>"http://img3.okgo.tw/titlepic/b340_1.jpg", :region=>"萬里區", :lat=>25.2040996, :lng=>121.6904673, :categories=>["establishment", "food", "point_of_interest", "restaurant"]}, {:name=>"保安宮", :description=>"野柳保安宮位於野柳漁港旁，祀奉「開漳聖君」、「媽祖」、「周倉將軍」和「土地公」等神明，是當地居民的信仰中心，相傳清嘉慶二十五年(西元1820年)，野柳居民在外海捕漁，海上突然出現一艘船，上頭載滿了許多建材及一尊神像，村民便將船隻引回野柳，並查詢神像確定為「開漳聖王陳元光將軍」，便開始用其材料來建廟供奉，保安宮每年農曆正月十五日，都會舉行「神明淨港過火繞境」儀式，此儀式不但為全台灣獨一無二的宗教民俗活動，更有一個傳奇的起源，據說，開漳聖王有一天透過乩童告訴村民，「想在元宵當天下港」，至此之後，元宵節就會由年輕力壯的信徒抬著開漳聖王、媽祖、周倉和土地公跳入海中遶游淨港，每年總會有大批的信眾到此參訪。", :address=>"萬里鄉野柳村港東路65-1號", :image=>"http://img3.okgo.tw/titlepic/b340_1.jpg", :region=>"萬里區", :lat=>25.2040996, :lng=>121.6904673, :categories=>["establishment", "food", "point_of_interest", "restaurant"]}, {:name=>"八煙聚落", :description=>"「八煙聚落」位於陽金公路旁的山坡台地，屬於陽明山國家公園的範圍。距今已有二百多年歷史的聚落，因為農業逐漸式微，謀生不易，導致青壯年人口外流，居民大幅減少，卻也因此保留了傳統的古樸自然和人文環境。 民國九十七年（2008），台灣生態工法發展基金會決定在此推動水梯田生態復舊與產業復甦計畫， 透過林務局的經費補助，啟動社區整體營造，以生態工法修復水圳，維持自然景致；經過幾年的努力，不但農田復耕、圳水復流；百年的石頭厝、石砌水圳道和層層的水梯田，構成一幅優美的山村景致。", :address=>"陽金公路7.2公里處", :image=>"http://img3.okgo.tw/titlepic/b3798_1.jpg", :region=>"金山區", :lat=>25.1865207, :lng=>121.5855707, :categories=>["route"]}, {:name=>"金山海濱公園", :description=>"金山海濱公園原名「金山中正公園」，位於金山半島的獅頭山上，本來此處是軍事重地，解嚴開放後，地處高處，三面環海、視野遼闊，是海岸線上最佳的觀景據點，因此吸引了許多遊客及當地居民經常來此。　園內幽雅靜謐，並規劃有多條健行步道及賞景地點，舉凡中正亭、景觀碉堡、礦港山、一線天岩洞，其中「中正亭」是觀看金山八景之一「燭台雙峙」的最佳角度，倘若遊客想選擇輕鬆省力的路線，可由公園路底前行，體力不錯的玩家則可由公園路步道入口前往。", :address=>"台北縣金山鄉磺港村磺港路", :image=>"http://img3.okgo.tw/titlepic/b475_4.jpg", :region=>"金山區", :lat=>25.2295174, :lng=>121.6463502, :categories=>["campground", "establishment", "lodging", "park", "point_of_interest", "spa"]}, {:name=>"金包里古道(魚路古道/挑硫古道)", :description=>"魚路古道(金包里古道)「魚路古道」為當時金包里(現今為金山鄉)至士林的交通道路，清光緒29年，金山鄉的漁民為將漁獲挑過擎天崗、經山豬湖、山仔后到士林或至大龍峒、大稻埕等地販售，並再由其他地區補給日常用品，但後期陽金公路的開通，古道便不再用做運送用途，今日，魚路古道已成為登山的健行路線之一，其所經過景點包括：絹絲瀑布、冷水坑遊憩區、菁山露營場、太陽谷大草原，倘若您由陽金公路前往至擎天崗，另外也可由擎天崗轉入魚路古道，此地入口處兩旁的城門石柱上刻有「金包里大路」。挑硫古道：挑硫古道需由陽金公路前行魚路古道至540公尺處由右分叉路進入，約20分鐘可接「挑硫古道」，古道上最具知名的景觀為大油坑沼澤區噴氣孔，白色煙霧繚繞的噴氣孔週邊溫度高達攝氏120度，附近黃色硫磺地質景觀也極富特色。", :address=>"陽金公路大油坑至八煙之間 ", :image=>"http://img3.okgo.tw/titlepic/b2622_1.jpg", :region=>"金山區", :lat=>25.1865207, :lng=>121.5855707, :categories=>["route"]}, {:name=>"金山溫泉", :description=>"金山溫泉位在台北縣金山鄉，是台灣最北邊的溫泉區，早在日據時代就已開發，主要可分為金包里溫泉、磺港溫泉及加投溫泉，因緊鄰北海岸，可一邊泡湯一邊欣賞海濱景致。金山溫泉的水質有海底溫泉、硫磺泉、碳酸泉及鐵泉，擁有大量泉源，清澈乾淨可飲可浴，現今結合北海岸各處的景點形成旅遊網絡，假日時許多民眾皆會到此泡湯賞景。", :address=>"青年路1號 ", :image=>"http://img3.okgo.tw/titlepic/b361_1.jpg", :region=>"金山區", :lat=>25.2254163, :lng=>121.64199, :categories=>["street_address"]}, {:name=>"新金山海水浴場", :description=>"新金山海水浴場是一處半月形海灣，長約五百公尺、寬則為兩百公尺，沿岸有交錯沙岸及沿岸的特殊景觀，夏季時經常吸引許多民眾前來戲水沖浪，金黃色的沙灘上更架有沙灘排球場，夕陽西下時橙黃色的陽光倒映在海面上相當迷人，更可觀看當地漁民傳統的牽罟捕魚方式。", :address=>"相鄰金山青年活動中心的海岸", :image=>"http://img3.okgo.tw/titlepic/b473_1.jpg", :region=>"金山區", :lat=>25.2254163, :lng=>121.64199, :categories=>["establishment", "lodging", "point_of_interest"]}, {:name=>"朱銘美術館", :description=>"朱銘美術館位在台北縣金山鄉，佔地面積約十一甲，於民國八十八年九月十九日正式對外開放參觀，是台灣首座戶外美術館。現今朱銘美術館展示藝術家朱銘先生五百件的平面畫作及五百件的立體雕塑，偌大的園區建有展覽室、表演藝術區、太極廣場、人間廣場及兒童藝術中心等主題區域，藍天綠意成為最佳的展示場所。美術館不定期推出朱銘先生的系列展，現場更提供有餐飲服務，優美的景緻及藝術氣息相當適合前往休閒參觀。", :address=>"金山鄉西勢湖2號", :image=>"http://img3.okgo.tw/titlepic/b472_1.jpg", :region=>"金山區", :lat=>25.2464426, :lng=>121.6112102, :categories=>["establishment", "museum", "point_of_interest"]}, {:name=>"朱銘美術館", :description=>"朱銘美術館位在台北縣金山鄉，佔地面積約十一甲，於民國八十八年九月十九日正式對外開放參觀，是台灣首座戶外美術館。現今朱銘美術館展示藝術家朱銘先生五百件的平面畫作及五百件的立體雕塑，偌大的園區建有展覽室、表演藝術區、太極廣場、人間廣場及兒童藝術中心等主題區域，藍天綠意成為最佳的展示場所。美術館不定期推出朱銘先生的系列展，現場更提供有餐飲服務，優美的景緻及藝術氣息相當適合前往休閒參觀。", :address=>"金山鄉西勢湖2號", :image=>"http://img3.okgo.tw/titlepic/b472_1.jpg", :region=>"金山區", :lat=>25.2464426, :lng=>121.6112102, :categories=>["establishment", "museum", "point_of_interest"]}, {:name=>"法鼓山世界佛教教育園區", :description=>"「法鼓山」為中華民國的佛教團體，由聖嚴法師創辦成立，是台灣佛教五大山頭之一。1989年因緣購得新北市金山區三界裡的一塊土地，並將其命名為「法鼓山」，從事社會教化、心靈輔導及關懷弱勢等公益活動。 「法鼓山世界佛教教育園區」內設有法鼓大學；並取法中國古道場，在大殿正下方設地宮，於1996年舉行奠基大典及地宮安寶儀式，將三百多件台灣佛教典籍和文物保存於內，並註明在西元三千年時才能開啟，為台灣佛教文化傳承的創舉。2006年12月23日法鼓山鐘樓的正式落成，鐘樓上立有重量25噸、高4.5公尺、直徑2.6公尺的「法華鐘」，用青銅鑄造而成的鐘，採用唐式鐘型，在鐘的內外鐘面上鑄刻有《妙法蓮華經》一部，共六萬九千六百三十六字、《大悲咒》一卷，共四百二十四字以及「多寶塔雙佛並坐圖」一幅。為法鼓山之鎮山物。", :address=>"新北市金山區三界里7鄰法鼓路555號", :image=>"http://img3.okgo.tw/titlepic/b3796_1.jpg", :region=>"金山區", :lat=>25.239845, :lng=>121.614883, :categories=>["establishment", "place_of_worship", "point_of_interest"]}, {:name=>"金山青年活動中心", :description=>"金山青年活動中心位在金山鄉橫港村，佔地面積約四千坪，是救國團最早設立也是最遼闊的活動中心。活動中心裡設有完善設施，包括烤肉區、露營區、溫泉館、海水浴場、會議中心、漆彈活動場、探索教育學習場、住宿及餐飲等設施，其中溫泉館可同時容納約五百人，建有室內、戶外及小型湯屋，是頗具規模的溫泉會館，活動中心不僅可提供一般民眾使用，更是學生及公司團體的訓練研習的場所。", :address=>"台北縣金山鄉青年路1號", :image=>"http://img3.okgo.tw/titlepic/b474_1.jpg", :region=>"金山區", :lat=>25.2254163, :lng=>121.64199, :categories=>["street_address"]}, {:name=>"金包里慈護宮", :description=>"金包里慈護宮又稱為「大廟」，位在台北縣金山鄉，竣工於清嘉慶十四年(西元1809年)，至今已有兩百年的歷史，主祀神祇為天上聖母媽祖，並供奉有佛祖、水仙尊王、神農大帝、關聖帝君及孔子，是當地民眾的信仰中心。於清嘉慶年間有一尊神像漂流至野柳地區，漁民拾起並建草祠供奉，因香火越趨鼎盛，受聖母指示於金包里街建廟，建廟後媽祖靈驗信徒健增，長年來信眾捐獻多次修築擴建至今日的規模，宮殿式建築擁有精湛的工藝裝飾，更建有拜亭、鐘鼓樓及聖母大樓等。每年農曆三月二十三日的迎媽祖日，熱鬧非凡，更於民國九十八年舉行建廟兩百週年系列活動，邀請眾多信徒熱烈參與。", :address=>"大同村金包里街十號", :image=>"http://img3.okgo.tw/titlepic/b470_1.jpg", :region=>"金山區", :lat=>24.073557, :lng=>121.1538564, :categories=>["administrative_area_level_4", "political"]}, {:name=>"舊金山總督溫泉", :description=>"舊金山總督溫泉位在台北縣金山鄉，由台灣總督府建於日據時代昭和十三年(西元1938年)五月，為兩層樓的西式溫泉會館，當時慣稱為「新館」。在台灣光復後，國軍駐紮於此處，溫泉水源亦遭阻斷，這裡成為海防軍事重地，直到國軍撤離後，原本已荒廢的新館由舊金山總督溫泉團隊依造原先的樣貌重築，將其打造為具有濃厚懷舊風情的溫泉會館重新營業。舊金山總都溫泉的水源為海底溫泉，富含大屯山脈中的硫磺及礦物成分，吸引遊客前往泡湯放鬆身心。", :address=>"豐漁村民生路196號", :image=>"http://img3.okgo.tw/titlepic/b419_1.jpg", :region=>"金山區", :lat=>25.2218601, :lng=>121.6458936, :categories=>["establishment", "general_contractor", "natural_feature", "point_of_interest"]}, {:name=>"新北市市民廣場", :description=>"新北市市民廣場位於板橋區的新北市政府前，佔地相當廣闊，是許多活動的舉辦地點。其中最特別的便是一年一度的新北耶誕節，廣場上的的綠竹筍裝置藝術將會被五彩繽紛地點亮，搭配上週遭的設施與活動，帶給每個人溫馨而動人的佳節氣氛。", :address=>"新北市板橋區中山路一段161號", :image=>"http://img3.okgo.tw/titlepic/b3646_1.jpg", :region=>"板橋區", :lat=>25.0122763, :lng=>121.4655369, :categories=>["street_address"]}, {:name=>"板橋435藝文特區", :description=>"「板橋435藝文特區」位於新北市板橋國中附近，原建於民國48年，做為軍人轉業及師資訓練中心，後來退輔會民國85年搬遷後便荒廢閒置多年，直至民國101年由新北市政府重新以「親子藝術公園」及「藝術家夢想基地」為兩大主軸，規劃藝術展演活動與藝文團隊進駐，使園區重新活化，呈現不同的風貌。「板橋435藝文特區」」設有濕地故事館、玩具博物館與藝術教室，以及周末不定期有各類的表演活動展出，像是門口的中正紀念堂又名「枋橋大戲院」，假日不定期會撥放電影、戲劇及演唱表演，相當適合親子一同與樂。另外，為了鼓勵藝術家勇於追求創作夢想，「板橋435藝文特區」也提供空間，以低廉、優惠租金吸引各式各樣的藝術人才進駐使用，打造新興的藝術聚落。", :address=>"新北市板橋區中正路435號", :image=>"http://img3.okgo.tw/titlepic/b2968_1.jpg", :region=>"板橋區", :lat=>25.0231796, :lng=>121.4542167, :categories=>["street_address"]}, {:name=>"板橋林家花園(林本源園邸)", :description=>"為人所熟知的板橋林家花園其全名為林本源園邸，佔地面積廣達一萬七千坪，自林平侯創建於清道光二十七年(西元1847年)，其子在後續的四十年中並陸續增建修築至今日的整體樣貌。林家花園中所使用的建材均為來自中國及台灣的高級樟木，並聘請專業工匠設計興建，園區內小橋流水、綠意盎然，精巧的亭、臺、樓、閣皆表現出中國園林的精湛，美景宜人充滿古意。民國六十六年時林本源祭祀公業將林家花園的產權交由台北縣政府，經由精密的測量後撥款一億五千六百萬元修復，並於民國七十四年時核定為園林類二級古蹟。現今的林家花園開放民眾付費參觀，並不定期策劃多項活動，成為民眾假日休閒的好去處。", :address=>"板橋市西門街42之65號及9號", :image=>"http://img3.okgo.tw/titlepic/b482_1.jpg", :region=>"板橋區", :lat=>25.0100684, :lng=>121.4539788, :categories=>["street_address"]}, {:name=>"江子翠河口景觀河濱公園", :description=>"「江子翠河口景觀河濱公園」位於新店溪與大漢溪的交界處，從華江橋至板橋鐵路這一段共佔地70公頃的大漢溪畔旁，廣大的綠地是週末親子共遊的絕佳地點。 公園內設置有多種設施，不僅有腳踏車道、籃球場、排球場、棒(壘)球場、足球場、羽球場、溜冰場、槌球場等運動設備，還有兒童休憩沙坑、藝文廣場、環形廣場、彩虹廣場、賞鳥區、羊咩咩草原、親水護岸等等設施，絕對是您週末踩自行車追風，或運動汗水淋漓的絕佳所在！", :address=>"新店溪與大漢溪的交界處", :image=>"http://img3.okgo.tw/titlepic/b2969_1.jpg", :region=>"板橋區", :lat=>24.975852, :lng=>121.5255724, :categories=>["establishment", "natural_feature"]}, {:name=>"新海人工濕地", :description=>"新海人工溼地位於新北市板橋區大漢溪的新海橋與大漢橋之間，因為板橋地區衛生下水道系統接管率低，板橋一帶的生活汙水都是直接排入大漢溪，因此新北市政府在大漢溪畔以人工的方式建置濕地，希望能夠對於大漢溪的水質進行淨化、改善。 從此，大漢溪畔的景致便產生變化，原先雜草叢生的河岸，逐漸被棋布星羅的濕地風光給取代，綠意盎然的河川吸引了許多生物聚集，甚至在特定的季節裡還會有候鳥來此休憩，如果來到新月橋騎乘自行車時，不妨探頭往橋下望望，好好欣賞這片都市的生態濕地吧～", :address=>"新北市板橋區大漢溪新海橋至大漢橋之間", :image=>"http://img3.okgo.tw/titlepic/b2980_1.jpg", :region=>"板橋區", :lat=>25.031339, :lng=>121.4557571, :categories=>["establishment", "point_of_interest", "route"]}, {:name=>"板橋農村公園", :description=>"板橋農村公園位在文化路與雙十路口，由板橋市農會闢建於民國七十八年，佔地面積約八千四百平方公尺，是台灣首座以農村生活為主題的休憩公園。公園內設置有三合院、長春園區、民俗戲台、農村八景及健康步道等五個區域，並有一座福德宮，室內展館展示著早期農業社會的擺設，包括大灶廚房、公嬤廳、木床臥房及犁田器具等，而戶外的水池旁及樹下擺放著鴨子與小雞的塑像，塑造濃厚的農村氣息。", :address=>"板橋市公園路16號", :image=>"http://img3.okgo.tw/titlepic/b480_1.jpg", :region=>"板橋區", :lat=>25.0114095, :lng=>121.4618415, :categories=>["administrative_area_level_3", "political"]}, {:name=>"板橋農村公園", :description=>"板橋農村公園位在文化路與雙十路口，由板橋市農會闢建於民國七十八年，佔地面積約八千四百平方公尺，是台灣首座以農村生活為主題的休憩公園。公園內設置有三合院、長春園區、民俗戲台、農村八景及健康步道等五個區域，並有一座福德宮，室內展館展示著早期農業社會的擺設，包括大灶廚房、公嬤廳、木床臥房及犁田器具等，而戶外的水池旁及樹下擺放著鴨子與小雞的塑像，塑造濃厚的農村氣息。", :address=>"板橋市公園路16號", :image=>"http://img3.okgo.tw/titlepic/b480_1.jpg", :region=>"板橋區", :lat=>25.0114095, :lng=>121.4618415, :categories=>["administrative_area_level_3", "political"]}, {:name=>"板橋農村公園", :description=>"板橋農村公園位在文化路與雙十路口，由板橋市農會闢建於民國七十八年，佔地面積約八千四百平方公尺，是台灣首座以農村生活為主題的休憩公園。公園內設置有三合院、長春園區、民俗戲台、農村八景及健康步道等五個區域，並有一座福德宮，室內展館展示著早期農業社會的擺設，包括大灶廚房、公嬤廳、木床臥房及犁田器具等，而戶外的水池旁及樹下擺放著鴨子與小雞的塑像，塑造濃厚的農村氣息。", :address=>"板橋市公園路16號", :image=>"http://img3.okgo.tw/titlepic/b480_1.jpg", :region=>"板橋區", :lat=>25.0114095, :lng=>121.4618415, :categories=>["administrative_area_level_3", "political"]}, {:name=>"新月橋", :description=>"「新月橋」位於板橋區新海橋上游約莫500公尺處，跨越新北市的板橋和新莊兩地，串連起板橋435藝文特區、新莊老街以及大漢溪兩岸的自行車道。 橋梁設計採用「不對稱雙鋼繫拱橋」，是國內雙跨距最長的鋼拱橋，橋上規劃了曲之藝、光之影、水之舞及風之律四座不同特色的景觀休憩平台，風景秀麗且極具特色，夜間則會利用燈光來襯托橋身的弧形之美，水面上的倒影與橋身相呼應，成就了一個美麗的圓。最特別的是，跨越主河道的水之舞平台另外設置了透明橋面的天空步道，民眾可以站在橋上觀賞水影舞動的樂趣。", :address=>"新北市板橋區環河道路", :image=>"http://img3.okgo.tw/titlepic/b2975_1.jpg", :region=>"板橋區", :lat=>24.9969097, :lng=>121.4484647, :categories=>["route"]}, {:name=>"玉美人觀光工廠", :description=>"「玉美人觀光工廠」前身為板橋的一座成衣加工廠，而後轉型專營孕婦裝和孕婦周邊商品批發，由於用料與縫工實在，逐漸建立好口碑，不但擁有一條自己的生產線，更是率先取得政府MIT認證的孕婦裝公司，而後開創觀光工廠，期望能給準媽咪們一個溫暖的空間，為迎接新生命做出對自己與對寶貝最完善的準備。 館內除了可以見證體驗孕婦裝的製作過程外，還提供不同懷孕週期適合的孕婦裝知識講解，更準備了親子拼布遊戲、防水杯墊製作、環保好運娃娃縫製等多樣化親子互動體驗。【參觀方式】1.為提供良好的參觀品質，請於3天前預約參觀時間。預約專線：02-89669762#172.若10人以上團體請於一週前預約。【費用說明】1.觀光工廠參觀券：NT100元(可抵商品消費50元)2.觀光工廠參觀券+創意T恤DIY製作：NT250元(50元可抵商品消費)3.商品展售區歡迎免費入場參觀選購", :address=>"新北市板橋區四川路2段16巷10號5樓", :image=>"http://img3.okgo.tw/titlepic/b2975_1.jpg", :region=>"板橋區", :lat=>24.997261, :lng=>121.45627, :categories=>["subpremise"]}, {:name=>"大觀義學", :description=>"大觀義學位在板橋區，前身為板橋望族林家所設立的「大觀學社」，建於清同治二年(西元1863年)，後改為大觀書社，清同治十二年(西元1873年)時更名為「大觀義學」，民國七十四年經評定為三級古蹟。大觀義學以紅色為主要色彩，外觀莊重平和、樸素雅潔，祭祀神祇文昌帝君，並擺有至聖先師孔子的牌位，庭院中央更立有一座孔子雕像。大觀義學不僅讓當地漳泉兩派民眾逐漸化解心結，也為板橋地區奠定了濃厚的文化采風。", :address=>"板橋市西門街5號", :image=>"http://img3.okgo.tw/titlepic/b592_1.jpg", :region=>"板橋區", :lat=>25.0114422, :lng=>121.4558606, :categories=>["street_address"]}, {:name=>"新北市立圖書館", :description=>"「新北市立圖書館」新總館於2015年6月30日正式營運，以環保、綠能概念，打造出全國第一間24小時服務的圖書館，並且採用「讓所有使用者感覺貼心」的理念，於2015年7月成為全台灣第一座符合「通用設計」的公共建築，圖書館依據不同年齡層的使用習慣，規劃多樣的閱讀空間，讓不同年齡、文化的族群都能擁有安心、舒適的閱讀空間。", :address=>"新北市板橋區貴興路139號", :image=>"http://img3.okgo.tw/titlepic/b3544_1.jpg", :region=>"板橋區", :lat=>25.0013933, :lng=>121.4550959, :categories=>["street_address"]}, {:name=>"接雲寺", :description=>"接雲寺的前身為建於清雍正年間的慈雲巖，當年板橋首富林氏家族因見居民需行遙遠山路至慈雲巖祭拜觀世音菩薩，因此在板橋地區興建小廟，每年恭請觀世音菩薩至板橋三個月供民眾謁拜，後因漳泉移民械鬥不幸毀於祝融。清咸豐六年(西元1856年)再建接雲寺，清光緒四年(西元1878年)因拓建林家花園遷廟於現今所在。接雲寺竣工於清光緒十三年(西元1887年)，至今已有百餘年的歷史，廟宇整體莊重肅穆，主祀神祇為觀世音菩薩，並供奉定光古佛、註生娘娘、關聖帝君及開漳聖王等眾神祇，廟宇中收藏有珍貴的古匾及古聯，相當具有價值。廟宇前方的松柏公園綠意盎然，許多信徒祭拜後也都會到此踏青。", :address=>"板橋市西門街10號", :image=>"http://img3.okgo.tw/titlepic/b481_1.jpg", :region=>"板橋區", :lat=>25.0116467, :lng=>121.4556208, :categories=>["street_address"]}, {:name=>"枋橋建學碑", :description=>"枋橋建學碑位在板橋國小校區內，高有三公尺多，寬則為一百六十五公分，是板橋望族林家建於清光三十四年(西元1908年)，並聘請日本知名的書法家日下部東作書寫碑文，經評定為三級古蹟。碑文中詳細記載板橋林家設立書社、義學及捐地建公學校等事蹟，為地方付出貢獻甚多，造福莘莘學子，也是大觀義學、公學校及板橋國小演化的見證，可惜現今的碑文已遭反日人士損毀，目前僅剩「枋橋建學碑」五字現於石碑上方。", :address=>"板橋市文化路一段23號", :image=>"http://img3.okgo.tw/titlepic/b599_1.jpg", :region=>"板橋區", :lat=>25.011502, :lng=>121.458411, :categories=>["street_address"]}, {:name=>"新山夢湖", :description=>"新山夢湖分別為「新山」及「夢湖」兩處景點，新山位在夢湖的上方，目前也規劃成風景優美的登山步道。新山海拔高度為四百九十九公尺，步行在悠悠山林間，登上新山可眺望壯闊的山巒景致，美景當前盡收眼底。位在新山下的夢湖海拔高度為三百二十五公尺，是一座波光粼粼的人工湖，周圍綠意盎然湖水清澈，擁有豐富的自然生態，因冬季時常起霧，因而取名「夢湖」，在不同的時刻有著相異的景色，成為婚紗攝影的取景地。", :address=>"汐止市汐萬路上", :image=>"http://img3.okgo.tw/titlepic/b486_1.jpg", :region=>"汐止區", :lat=>25.1234705, :lng=>121.6282526, :categories=>["establishment", "food", "point_of_interest", "restaurant"]}, {:name=>"慈航寺(慈航紀念館)", :description=>"汐止慈航寺位在大尖山的山腰間，三層樓高的黃瓦紅柱建築擁有莊嚴肅穆的氣息，廟中供奉著台灣首座肉身菩薩－慈航法師，大廳祀奉著五尊佛祖雕像，大雄寶殿裡供奉著大悲咒中的八十四尊觀世音菩薩，每尊觀音雕像皆有不同的神情，相當特殊。慈航寺周圍景致優美，還可遠眺山嵐美景，鄰近更有大尖山風景區及新山夢湖等遊憩區，吸引許多民眾假日前來休閒踏青。", :address=>"汐止市秀峰路247號", :image=>"http://img3.okgo.tw/titlepic/b484_2.jpg", :region=>"汐止區", :lat=>25.060026, :lng=>121.663409, :categories=>["street_address"]}, {:name=>"拱北殿", :description=>"拱北殿位在汐止市，建於清光緒三十二年(西元1906年)，是一座享譽盛名的百年古剎，廟宇環境廣大，山林靜謐草木扶疏，設置涼亭及石桌椅供民眾休憩，秋季時楓樹將山頭染紅，美不勝收。拱北殿中主祀神祇為孚佑帝君，也就是八仙當中的呂洞賓，並配祀有孔子、釋迦牟尼、元天君老祖、太歲星君及八仙等神祇。廟宇外觀莊嚴肅穆，擁有多樣化的剪黏裝飾藝術，目前在廟地中仍可看見具有日本特色的事物，亦有多條登山步道，可眺望山下美景，假日時不僅可到此參拜，還可登山踏青。", :address=>"汐止市汐萬路三段88號", :image=>"http://img3.okgo.tw/titlepic/b483_1.jpg", :region=>"汐止區", :lat=>25.0943476, :lng=>121.6423279, :categories=>["street_address"]}, {:name=>"大尖山風景區", :description=>"大尖山風景區海拔高度為四百零六公尺，屬於五分山群姜子寮山列，四．二公里長的步道經過龍船洞、秀峰瀑布及天秀宮等景點，沿途可見到翠綠竹林、櫻花及杜鵑等多種植物，花季時翠綠艷紅彩蝶紛飛，美不勝收，每年五到七月更可看到點點螢火蟲飛舞。登上山頂後遠眺基隆山、觀音山、七星山及台北全景，居高臨下視野極佳，呼吸清新的空氣令人神清氣爽，相當適合假日休閒健行。", :address=>"汐止市勤進路", :image=>"http://img3.okgo.tw/titlepic/b485_8.jpg", :region=>"汐止區", :lat=>25.0483706, :lng=>121.668696, :categories=>["route"]}, {:name=>"大尖山風景區", :description=>"大尖山風景區海拔高度為四百零六公尺，屬於五分山群姜子寮山列，四．二公里長的步道經過龍船洞、秀峰瀑布及天秀宮等景點，沿途可見到翠綠竹林、櫻花及杜鵑等多種植物，花季時翠綠艷紅彩蝶紛飛，美不勝收，每年五到七月更可看到點點螢火蟲飛舞。登上山頂後遠眺基隆山、觀音山、七星山及台北全景，居高臨下視野極佳，呼吸清新的空氣令人神清氣爽，相當適合假日休閒健行。", :address=>"汐止市勤進路", :image=>"http://img3.okgo.tw/titlepic/b485_8.jpg", :region=>"汐止區", :lat=>25.0483706, :lng=>121.668696, :categories=>["route"]}, {:name=>"陳秋菊古厝", :description=>"陳秋菊古厝曾是開喜烏龍茶廣告拍攝地點，目前古厝仍有人居住，如欲參觀請遠就好，古厝大廳的神桌、桌椅都是建屋時，從唐山訂製的，完全不使用鐵釘打造的古老技術，相當特別，在後院則有一口百年古井。", :address=>"深坑鄉旺耽路16號", :image=>"http://img3.okgo.tw/titlepic/b491_1.jpg", :region=>"深坑區", :lat=>25.0044026, :lng=>121.6275252, :categories=>["street_address"]}, {:name=>"深坑集順廟(廟口小吃)", :description=>"深坑集順廟建於清道光十八年(西元1838年)，主祀神祇為保儀大夫及保儀尊王，為唐朝時期的文武官，並配祀福德正神、關聖帝君及分香供奉的六尊媽祖，農曆正月初一到十五會舉行祈春法會，是當地相當有地位的廟宇。集順廟口前的深坑老街有著多家具有特色的小吃美食，其中最廣為人知的就是深坑豆腐，遵循傳統的製作技術，不論是紅燒或是碳烤都相當美味。", :address=>"深坑鄉深坑街133號", :image=>"http://img3.okgo.tw/titlepic/b487_2.jpg", :region=>"深坑區", :lat=>25.0012302, :lng=>121.6134788, :categories=>["street_address"]}, {:name=>"深坑黃氏永安居", :description=>"深坑黃氏永安居約竣工於民國四年(西元1915年)，至今已有九十餘年的歷史，是一座單進三開間四護龍的傳統三合院建築，主屋擁有精緻的磚飾、剪黏、彩繪及石雕等裝飾工藝，並在石窗及水車堵上製作「禪賢讓位」、「大舜象耕」及「瑞雲」等泥塑及檢年。永安居中最具有特色的即是每座窗戶皆有一塊約二十公分長的凸出石塊，並在上方鑿有孔穴，是為遮陽及防止雨水流入所設，稱為「兔仔耳」。此外，完備的防禦系統也是永安居的特色之一，包括銃樓、銃眼及圍牆等。永安居經評定後為國家三級古蹟，於假日開放售票參觀，平日可供團體預約開放，民眾不妨到此探訪這古意盎然的傳統古居。", :address=>"深坑鄉萬順寮1號", :image=>"http://img3.okgo.tw/titlepic/b598_1.jpg", :region=>"深坑區", :lat=>25.002372, :lng=>121.605449, :categories=>["neighborhood", "political"]}, {:name=>"深坑黃氏永安居", :description=>"深坑黃氏永安居約竣工於民國四年(西元1915年)，至今已有九十餘年的歷史，是一座單進三開間四護龍的傳統三合院建築，主屋擁有精緻的磚飾、剪黏、彩繪及石雕等裝飾工藝，並在石窗及水車堵上製作「禪賢讓位」、「大舜象耕」及「瑞雲」等泥塑及檢年。永安居中最具有特色的即是每座窗戶皆有一塊約二十公分長的凸出石塊，並在上方鑿有孔穴，是為遮陽及防止雨水流入所設，稱為「兔仔耳」。此外，完備的防禦系統也是永安居的特色之一，包括銃樓、銃眼及圍牆等。永安居經評定後為國家三級古蹟，於假日開放售票參觀，平日可供團體預約開放，民眾不妨到此探訪這古意盎然的傳統古居。", :address=>"深坑鄉萬順寮1號", :image=>"http://img3.okgo.tw/titlepic/b598_1.jpg", :region=>"深坑區", :lat=>25.002372, :lng=>121.605449, :categories=>["neighborhood", "political"]}, {:name=>"鎮南宮", :description=>"深坑鎮南宮建於前清光緒年間，至今已有百餘年的歷史，主祀神祇為石媽祖，是一尊形似媽祖的風化石頭，現今在外表已有多加容飾。此外，廟中也供奉著一尊一．五公尺長的石頭公，民眾稱為白鶴仙師，後亭並奉有石觀音及龍泉。廟宇旁有一條建於昭和五年(西元1930年)的石媽祖古道，約有三百八十四階，古道兩旁皆是蓊蓊山林、空氣清新，還可遠眺深坑景色，令人神清氣爽。", :address=>"深坑鄉大崙腳8號", :image=>"http://img3.okgo.tw/titlepic/b488_1.jpg", :region=>"深坑區", :lat=>24.991572, :lng=>121.6150499, :categories=>["establishment", "place_of_worship", "point_of_interest"]}, {:name=>"淡蘭古道．石碇段（外按古道）", :description=>"淡蘭古道原稱為淡蘭道，從清朝的嘉慶年間便是淡水廳至噶瑪蘭廳的主要交通要道，現存「三貂嶺金字碑古道」、「草嶺古道」、「隆嶺古道」三段，而淡蘭古道的「石碇段」因為興建國道五號北宜高速公路已遭受破壞，不復存在。石碇區公所為將淡蘭古道遺址保留，便依照原路線重新鋪整古道，又稱外按古道，全長約有3700公尺，步道平緩好走，入口處有一座紅色的淡蘭吊橋，沿途還有涼亭可供休息，最適合親子散步賞花，走入大自然。", :address=>"新北市石碇雙溪口與石碇老街之間", :image=>"http://img3.okgo.tw/titlepic/b3356_1.jpg", :region=>"石碇區", :lat=>24.9909783, :lng=>121.6596555, :categories=>["establishment", "park", "point_of_interest"]}, {:name=>"淡蘭古道．石碇段（外按古道）", :description=>"淡蘭古道原稱為淡蘭道，從清朝的嘉慶年間便是淡水廳至噶瑪蘭廳的主要交通要道，現存「三貂嶺金字碑古道」、「草嶺古道」、「隆嶺古道」三段，而淡蘭古道的「石碇段」因為興建國道五號北宜高速公路已遭受破壞，不復存在。石碇區公所為將淡蘭古道遺址保留，便依照原路線重新鋪整古道，又稱外按古道，全長約有3700公尺，步道平緩好走，入口處有一座紅色的淡蘭吊橋，沿途還有涼亭可供休息，最適合親子散步賞花，走入大自然。", :address=>"新北市石碇雙溪口與石碇老街之間", :image=>"http://img3.okgo.tw/titlepic/b3356_1.jpg", :region=>"石碇區", :lat=>24.9909783, :lng=>121.6596555, :categories=>["establishment", "park", "point_of_interest"]}, {:name=>"淡蘭吊橋", :description=>"位於重建後的淡蘭古道石碇段的入口處，「淡蘭吊橋」於95年10月以全新的紅色耀眼姿態佇立於寧靜清幽的山水之間，全長約有100公尺，步行於步道上可聽潺潺流水與鳥語蟲鳴，眼觀溪流緩緩流瀉，體驗石碇鄉的自然淡雅、青新脫俗的美麗面貌。", :address=>"新北市石碇區106乙縣道雙溪口68-8號旁", :image=>"http://img3.okgo.tw/titlepic/b3357_1.jpg", :region=>"石碇區", :lat=>25.0046068, :lng=>121.6516417, :categories=>["establishment", "point_of_interest"]}, {:name=>"皇帝殿", :description=>"石碇皇帝殿山是北台灣著名的岩場，東峰海拔高度為593公尺，西峰則為560公尺，中峰是562公尺，而皇帝殿山指的就是東西峰的山脊，因是相當狹窄的岩稜，因此被稱為「一步稜線」及「恐龍背」。皇帝殿山雖非相當高聳，但可眺望四分仔尾山、七星山及磺嘴山等景致，視野相當良好。目前因遊客如織以開發成為皇帝殿風景區，建有停車場、公廁、露營區、烤肉區及嬉水游泳池等設施，吸引許多民眾假日前來遊憩。", :address=>"永定國小上登", :image=>"http://img3.okgo.tw/titlepic/b494_1.jpg", :region=>"石碇區", :lat=>25.008183, :lng=>121.688042, :categories=>["establishment", "point_of_interest", "school"]}, {:name=>"石碇姑娘廟", :description=>"石碇姑娘廟位在永定村，初建小祠於民國七年，廟中主祀神祇為魏扁仙姑，相傳魏扁仙姑誕於清同治元年(西元1862年)，升天於清光緒五年(西元1879年)，葬於魏家林地，由於卒時尚未出嫁，且為家中獨生女，身後無人祭拜。後魏家將林地轉賣給曾桂，曾桂在此開拓務農，沒想到雙腳卻莫名發生腳疾，後在曾桂建立姑娘廟後即痊癒，目前廟宇管理人皆為曾家後嗣。石碇姑娘廟初建至今已有百餘年的歷史，廟宇不斷擴大修建，目前的廟貌為民國六十一年時竣工，姑娘廟的祈願方式較為特殊，向廟方索取二十元左右的紅包供放在桌上，在祈願後將紅包帶回，多數民眾在如願後，皆添萬元以上的香油錢還願，顯示姑娘廟相當靈驗。現今姑娘廟的偏堂陪祀百多尊為出嫁少女之牌位，據說因魏扁仙姑矜持嚴肅，到此參拜的民眾需懷有誠懇慈悲的心，不可任意嬉戲笑鬧。", :address=>"石碇鄉永定村大湖格路22之1號", :image=>"http://img3.okgo.tw/titlepic/b493_5.jpg", :region=>"石碇區", :lat=>25.0166146, :lng=>121.6982557, :categories=>["establishment", "point_of_interest"]}, {:name=>"石碇姑娘廟", :description=>"石碇姑娘廟位在永定村，初建小祠於民國七年，廟中主祀神祇為魏扁仙姑，相傳魏扁仙姑誕於清同治元年(西元1862年)，升天於清光緒五年(西元1879年)，葬於魏家林地，由於卒時尚未出嫁，且為家中獨生女，身後無人祭拜。後魏家將林地轉賣給曾桂，曾桂在此開拓務農，沒想到雙腳卻莫名發生腳疾，後在曾桂建立姑娘廟後即痊癒，目前廟宇管理人皆為曾家後嗣。石碇姑娘廟初建至今已有百餘年的歷史，廟宇不斷擴大修建，目前的廟貌為民國六十一年時竣工，姑娘廟的祈願方式較為特殊，向廟方索取二十元左右的紅包供放在桌上，在祈願後將紅包帶回，多數民眾在如願後，皆添萬元以上的香油錢還願，顯示姑娘廟相當靈驗。現今姑娘廟的偏堂陪祀百多尊為出嫁少女之牌位，據說因魏扁仙姑矜持嚴肅，到此參拜的民眾需懷有誠懇慈悲的心，不可任意嬉戲笑鬧。", :address=>"石碇鄉永定村大湖格路22之1號", :image=>"http://img3.okgo.tw/titlepic/b493_5.jpg", :region=>"石碇區", :lat=>25.0166146, :lng=>121.6982557, :categories=>["establishment", "point_of_interest"]}, {:name=>"石碇姑娘廟", :description=>"石碇姑娘廟位在永定村，初建小祠於民國七年，廟中主祀神祇為魏扁仙姑，相傳魏扁仙姑誕於清同治元年(西元1862年)，升天於清光緒五年(西元1879年)，葬於魏家林地，由於卒時尚未出嫁，且為家中獨生女，身後無人祭拜。後魏家將林地轉賣給曾桂，曾桂在此開拓務農，沒想到雙腳卻莫名發生腳疾，後在曾桂建立姑娘廟後即痊癒，目前廟宇管理人皆為曾家後嗣。石碇姑娘廟初建至今已有百餘年的歷史，廟宇不斷擴大修建，目前的廟貌為民國六十一年時竣工，姑娘廟的祈願方式較為特殊，向廟方索取二十元左右的紅包供放在桌上，在祈願後將紅包帶回，多數民眾在如願後，皆添萬元以上的香油錢還願，顯示姑娘廟相當靈驗。現今姑娘廟的偏堂陪祀百多尊為出嫁少女之牌位，據說因魏扁仙姑矜持嚴肅，到此參拜的民眾需懷有誠懇慈悲的心，不可任意嬉戲笑鬧。", :address=>"石碇鄉永定村大湖格路22之1號", :image=>"http://img3.okgo.tw/titlepic/b493_5.jpg", :region=>"石碇區", :lat=>25.0166146, :lng=>121.6982557, :categories=>["establishment", "point_of_interest"]}, {:name=>"財神廟", :description=>"石碇五路財神廟為純道教廟宇，是當地相當著名的財神廟，廟宇中供奉武財神趙公明、招財使者、進寶天尊、納珍天尊及利市仙官五位財神，外觀以金與黃為主要顏色，並隨處可見以元寶形狀建成的柱子、天公爐、聚寶盆水池及燭臺等裝飾。五路財神廟提供求取發財金、與虎爺換錢水、補財庫、求財祭改及設求財轉運燈等服務，吸引許多民眾前來祭拜求財。", :address=>"石碇鄉永定村大湖格路20之1號", :image=>"http://img3.okgo.tw/titlepic/b499_1.jpg", :region=>"石碇區", :lat=>25.0170657, :lng=>121.6974558, :categories=>["establishment", "place_of_worship", "point_of_interest"]}, {:name=>"石碇堡隧道", :description=>"石碇堡是台灣北部從清領時期至日治初期的行政規畫，包含了汐止區、平溪區以及基隆的七堵區、暖暖區全部，和瑞芳區南部，石碇堡隧道現今則是石碇的門戶，位於106乙縣道前往石碇的入口處，古樸的隧道讓人彷彿走入時光倒流的歷史場景之中。", :address=>"新北市石碇區106乙縣道雙溪口", :image=>"http://img3.okgo.tw/titlepic/b3358_1.jpg", :region=>"石碇區", :lat=>25.0046068, :lng=>121.6516417, :categories=>["establishment", "point_of_interest"]}, {:name=>"天后宮", :description=>"石碇天后宮竣工安座於民國九十年十月二十二日，佔地面積四百多坪，為先民許車前奉獻做為祭祀天上聖母的場所，天后宮雖為新建，但卻有段久遠的歷史。清光緒五年(西元1879年)間，彭山村的農作物遭受蝗蟲之害，當地居民遂自關渡宮迎來二媽媽祖，果然在迎來二媽後不需農藥皆無蟲害。後在三年因稻、茶皆發生病害，居民再迎媽祖，居民為感念媽祖恩德，定為五年一次迎請二媽遶境，祈求鄉里平安，後日據時期停辦，光復後於民國三十六年再度發起，並結合坪林鄉及深坑鄉，現今為三鄉五年迎媽祖盛會，場面熱鬧非凡。", :address=>"石碇鄉彭山村四鄰崩山33-3號", :image=>"http://img3.okgo.tw/titlepic/b3358_1.jpg", :region=>"石碇區", :lat=>25.0357803, :lng=>121.6208168, :categories=>["route"]}, {:name=>"天后宮", :description=>"石碇天后宮竣工安座於民國九十年十月二十二日，佔地面積四百多坪，為先民許車前奉獻做為祭祀天上聖母的場所，天后宮雖為新建，但卻有段久遠的歷史。清光緒五年(西元1879年)間，彭山村的農作物遭受蝗蟲之害，當地居民遂自關渡宮迎來二媽媽祖，果然在迎來二媽後不需農藥皆無蟲害。後在三年因稻、茶皆發生病害，居民再迎媽祖，居民為感念媽祖恩德，定為五年一次迎請二媽遶境，祈求鄉里平安，後日據時期停辦，光復後於民國三十六年再度發起，並結合坪林鄉及深坑鄉，現今為三鄉五年迎媽祖盛會，場面熱鬧非凡。", :address=>"石碇鄉彭山村四鄰崩山33-3號", :image=>"http://img3.okgo.tw/titlepic/b3358_1.jpg", :region=>"石碇區", :lat=>25.0357803, :lng=>121.6208168, :categories=>["route"]}, {:name=>"猴硐貓村", :description=>"猴硐貓村位於台灣新北市瑞芳區侯硐車站週邊，以光復里柴寮路一帶為中心的山村民宅古街。　猴硐地區以兩處平溪線鐵路畫分為兩大景點，一為「猴硐坑礦產園區」，另一個就是「猴硐貓村」。由於貓村在早期便聚集許多貓咪在此棲息，加上貓咪繁殖力強，此處竟成了貓咪棲息地。於是在2009年10月31日透過愛貓人士們發起「有貓相隨，侯硐最美」的活動後，貓咪的居住環境煥然一新。　在抵達台鐵猴硐站後，一出站即可在車站天橋上看到許多與貓鄉關的看板，也提供貓村導覽圖方便遊客遊覽，一路上更有許多可愛的招牌，像是「小心貓出沒」，十分有趣。猴硐車站內也販售各式與貓咪鄉關的週邊商品，這些可愛的商品，絕對讓來訪的遊客們充滿訝異！　貓村的貓咪可與遊客親近，許多愛貓人士都會到此為貓咪們拍下可愛的照片，若是您也愛貓咪，因為白天較為炎熱，且貓咪們屬夜行性，故貓群多會隱匿於陰涼處，傍晚後較容易看見大量貓隻群聚的景況。想與貓咪們親近，「猴硐貓村」十分適合喔！", :address=>"光復里(猴硐活動中心)", :image=>"http://img3.okgo.tw/titlepic/b2778_1.jpg", :region=>"瑞芳區", :lat=>25.08292, :lng=>121.825584, :categories=>["bus_station", "establishment", "point_of_interest", "transit_station"]}, {:name=>"黃金瀑布", :description=>"金瓜石「黃金瀑布」即位於六坑口下方的長仁礦區，並位處往水湳洞的公路旁，顯眼的特色景觀金橙黃色的瀑布景象，因地勢落差比較大，所以形成瀑布景觀，更於金瓜石地區必定前來欣賞之景點，於早期瀑布的上游為採銅礦之處，經長年金屬礦產的沉積，經雨水滲入後流出，也讓金屬礦石的金黃色，成為瀑布壯麗的景觀，並於此原因也造就了現在的陰陽海的特殊景觀。", :address=>"新北市瑞芳區(金瓜石往水湳洞)", :image=>"http://img3.okgo.tw/titlepic/b3039_1.jpg", :region=>"瑞芳區", :lat=>25.1182671, :lng=>121.8646585, :categories=>["establishment", "point_of_interest"]}, {:name=>"北海岸濱海公路", :description=>"北海岸因地處東北季風的切入面，經年承受風吹海蝕，形成了變化豐富的海蝕地形與奇岩怪石等特殊地貌，變化萬千的地形景觀，讓北部濱海公路成為著名的景觀公路，沿途景點盛多，更多咖啡行動車、景觀餐廳林立，成為北台灣民眾假日的出遊勝地。", :address=>"台2線／北部濱海公路", :image=>"http://img3.okgo.tw/titlepic/b3042_1.jpg", :region=>"瑞芳區", :lat=>24.8688064, :lng=>121.8314712, :categories=>["route"]}, {:name=>"水湳洞陰陽海", :description=>"「水湳洞陰陽海(陰陽海)」位於台灣新北市瑞芳區水湳洞聚落北側，為台灣東北角濱海地區的一大特殊地理景觀。海灣中的海水顏色因天然礦物呈黃褐色，與外海方向正常海水的藍顏色形成鮮明對比，因而得名。", :address=>"台2線78.2K處", :image=>"http://img3.okgo.tw/titlepic/b3040_1.jpg", :region=>"瑞芳區", :lat=>24.8688064, :lng=>121.8314712, :categories=>["route"]}, {:name=>"水湳洞陰陽海", :description=>"「水湳洞陰陽海(陰陽海)」位於台灣新北市瑞芳區水湳洞聚落北側，為台灣東北角濱海地區的一大特殊地理景觀。海灣中的海水顏色因天然礦物呈黃褐色，與外海方向正常海水的藍顏色形成鮮明對比，因而得名。", :address=>"台2線78.2K處", :image=>"http://img3.okgo.tw/titlepic/b3040_1.jpg", :region=>"瑞芳區", :lat=>24.8688064, :lng=>121.8314712, :categories=>["route"]}, {:name=>"水湳洞陰陽海", :description=>"「水湳洞陰陽海(陰陽海)」位於台灣新北市瑞芳區水湳洞聚落北側，為台灣東北角濱海地區的一大特殊地理景觀。海灣中的海水顏色因天然礦物呈黃褐色，與外海方向正常海水的藍顏色形成鮮明對比，因而得名。", :address=>"台2線78.2K處", :image=>"http://img3.okgo.tw/titlepic/b3040_1.jpg", :region=>"瑞芳區", :lat=>24.8688064, :lng=>121.8314712, :categories=>["route"]}, {:name=>"南雅奇岩", :description=>"北部濱海公路環繞了台灣的北段沿海地區，獨特的地景風貌讓台2線上佈滿許多美麗的自然景點，而位於濱海公路約80.8公里處的南雅海岸邊，這裡有一根特別的石柱更是常常吸引許多旅人駐足。第一眼看到他尖尖且層層相疊的外型就馬上讓人聯想到好吃的冰淇淋，或是尖聳清甜的的竹筍，特別是岩石上還有著斑斕的花紋，十分引人注目。 原來這是因為南雅海岸山勢陡峭，海蝕風化岩石相當發達，且一塊石層的軟硬度本來不相同，導致受到海水與強風侵蝕時速率不一致，而產生了特殊的地貌。而且東北角不但多季風還多雨，風化過後的岩石裡頭的含鐵礦受到雨水而氧化，便呈現出褐色的帶狀花紋，斑斕的色彩鑲嵌在岩石上，相當美麗與獨特。", :address=>"北部濱海公路（台2線）80.8公里處", :image=>"http://img3.okgo.tw/titlepic/b3384_1.jpg", :region=>"瑞芳區", :lat=>25.1268533, :lng=>121.4609061, :categories=>["intersection"]}, {:name=>"南雅奇岩", :description=>"北部濱海公路環繞了台灣的北段沿海地區，獨特的地景風貌讓台2線上佈滿許多美麗的自然景點，而位於濱海公路約80.8公里處的南雅海岸邊，這裡有一根特別的石柱更是常常吸引許多旅人駐足。第一眼看到他尖尖且層層相疊的外型就馬上讓人聯想到好吃的冰淇淋，或是尖聳清甜的的竹筍，特別是岩石上還有著斑斕的花紋，十分引人注目。 原來這是因為南雅海岸山勢陡峭，海蝕風化岩石相當發達，且一塊石層的軟硬度本來不相同，導致受到海水與強風侵蝕時速率不一致，而產生了特殊的地貌。而且東北角不但多季風還多雨，風化過後的岩石裡頭的含鐵礦受到雨水而氧化，便呈現出褐色的帶狀花紋，斑斕的色彩鑲嵌在岩石上，相當美麗與獨特。", :address=>"北部濱海公路（台2線）80.8公里處", :image=>"http://img3.okgo.tw/titlepic/b3384_1.jpg", :region=>"瑞芳區", :lat=>25.1268533, :lng=>121.4609061, :categories=>["intersection"]}, {:name=>"無耳茶壺山", :description=>"_特約記者謝佳真   北部熱門的賞芒花地點，除了平易近人的草嶺古道外，位於瑞芳的無耳茶壺山也有非常壯觀的景致。爬到高點，藍色的海洋與白綠相間的山坡首先躍入眼簾，朱紅的涼亭點綴在突出的山頭上，遠近馳名的陰陽海在遙遠的下方閃耀著。 從黃金博物館或勸濟堂都能接到登山口，上坡與平路交錯，若體力不好可能會稍感吃力。往上爬的途中會經過產業道路，路邊有非常開闊的視野，能將蜿蜒的公路與水湳洞一覽無遺。茶壺山步道沿途會經過朝寶亭與寶獅亭，後者的海拔更高。兩座涼亭除了提供休憩外，也是不錯的觀景點。 走到了寶獅亭，就代表健行即將到終點。雪白的芒花從路面一路延伸到山頂，秋天的無耳茶壺山彷彿穿了一件絨毛毛衣。要攻頂，需要攀上一段陡坡。距離並不長，但坡度頗大，要攀爬請務必穿著抓地力好的鞋子。 許多人會在無耳茶壺山攻頂後，繼續前往半屏山與燦光寮山，最後下接黃金博物館，完成一個O型的環狀路線。若時間與體力許可，是一探九份山頭的好路線，健行難度亦不高。", :address=>"新北市瑞芳區無耳茶壺山", :image=>"http://img3.okgo.tw/titlepic/b3623_1.jpg", :region=>"瑞芳區", :lat=>25.1063519, :lng=>121.8659876, :categories=>["establishment", "natural_feature"]}, {:name=>"黃金博物館黃金博物園區", :description=>"黃金博物館黃金博物園區位在瑞芳鎮金瓜石，是台灣首座生態主題博物館，也是最大的金屬礦業遺址。黃金博物園區中建有多項設施，包括黃金博物館、環境館、太子賓館、煉金樓及生活美學體驗坊等區域，展示金瓜石山坑道、礦脈、礦業運輸系統及金磚等資訊，更設有本山五坑坑道供民眾進入體驗，並不定期舉行相關特展，提供民眾寓教於樂的學習場館。", :address=>"瑞芳鎮金瓜石金瓜路8號", :image=>"http://img3.okgo.tw/titlepic/b1506_1.jpg", :region=>"瑞芳區", :lat=>25.1084162, :lng=>121.8561966, :categories=>["street_address"]}, {:name=>"黃金博物館黃金博物園區", :description=>"黃金博物館黃金博物園區位在瑞芳鎮金瓜石，是台灣首座生態主題博物館，也是最大的金屬礦業遺址。黃金博物園區中建有多項設施，包括黃金博物館、環境館、太子賓館、煉金樓及生活美學體驗坊等區域，展示金瓜石山坑道、礦脈、礦業運輸系統及金磚等資訊，更設有本山五坑坑道供民眾進入體驗，並不定期舉行相關特展，提供民眾寓教於樂的學習場館。", :address=>"瑞芳鎮金瓜石金瓜路8號", :image=>"http://img3.okgo.tw/titlepic/b1506_1.jpg", :region=>"瑞芳區", :lat=>25.1084162, :lng=>121.8561966, :categories=>["street_address"]}, {:name=>"蝙蝠洞公園", :description=>"「瑞芳蝙蝠洞公園」位於台二線北部濱海公路75km標誌旁，位於瑞濱與水湳洞之間，蝙蝠曾消失好一陣子，近十年內數量慢慢增加，每到七八月傍晚，就會飛出大約五十萬隻的摺翅蝠出來覓食找蟲吃。為東亞最大摺翅輻的棲息地。", :address=>"新北市瑞芳區北部濱海公路", :image=>"http://img3.okgo.tw/titlepic/b3041_1.jpg", :region=>"瑞芳區", :lat=>25.12156, :lng=>121.8676503, :categories=>["route"]}, {:name=>"瑞芳火車站", :description=>"瑞芳火車站為台灣鐵路管理局的宜蘭縣、深澳線的鐵路車站，是前往九份、金瓜石、平溪、菁桐、深澳等景點的必經之地，特別的是，因為前往九份的日本觀光客數量眾多，站內還貼心提供日文標示以及日文通譯，展現台灣人親切和藹的民俗風情。", :address=>"新北市瑞芳區龍潭里明燈路三段82號", :image=>"http://img3.okgo.tw/titlepic/b3258_1.jpg", :region=>"瑞芳區", :lat=>25.1089277, :lng=>121.8061486, :categories=>["street_address"]}, {:name=>"九份金礦博物館", :description=>"九份是曾經的淘金小鎮，曾因採金有過一段繁榮的歷史，九份金礦博物館位在九份老街旁，設立於民國八十二年，館中展示許多九份採礦的資料與圖片，詳細介紹著九份的採金歷史及採金至煉金的過程。館內擺設多塊金礦原石、雅石及淘金、煉金等工具，館長並會示範每一個步驟及解說，讓民眾了解在煉金技術較不發達的早期，先民如何以智慧發展出傳統的煉金技法。金礦博物館中還有一座九番坑小礦坑，周圍還有礦工燈帽、石臼及採礦器具等，猶如是一座小型的礦場。", :address=>"瑞芳鎮九份頌德里石碑巷66號", :image=>"http://img3.okgo.tw/titlepic/b504_1.jpg", :region=>"瑞芳區", :lat=>25.108377, :lng=>121.842333, :categories=>["establishment", "lodging", "point_of_interest"]}, {:name=>"九份昇平戲院", :description=>"「昇平戲院」前身起源於大正5年，為舊時市場旁的木造戲台，主演歌仔戲，約可容納約三四百人。昭和2年(1927年)戲台因年久而崩垮，而後經營者於原地建造戲院，佔地約200坪，為日治時代全台灣最大的戲院。後因九份人口外流嚴重而於1986年結束營業。特殊的建築使得許多電影皆以昇平戲院為場景，包含「多桑」﹑「悲情城市」﹑或「藍山咖啡」等，拍出經典鏡頭。不但為北台灣最古老的戲院，也是遊客造訪九份的必遊景點之一。", :address=>"新北市瑞芳區輕便路137號", :image=>"http://img3.okgo.tw/titlepic/b2925_1.jpg", :region=>"瑞芳區", :lat=>25.1090671, :lng=>121.843633, :categories=>["street_address"]}, {:name=>"九份霞海城隍廟（昭靈廟）", :description=>"位於九份汽車路與輕便路的交叉路口上，九份霞海城隍廟（昭靈廟）是九份相當顯眼的地標建築，碩大的龍柱與華麗的脊飾，吸引許多信眾參拜，從大正12年（1923年）建廟至今，已歷經了近百年的歷史風華。 城隍信仰是源自於都城的守護神，在漢民族社會中具有相當悠久的歷史，遇有水災、旱災等天災，或是遭遇官司的人禍，民眾皆會向城隍祈禱，希冀災厄能迎刃而解。而霞海城隍則是源於中國福建同安縣下店鄉居民自行祀奉之城隍爺，因為祖廟在福建同安的臨海門，因此稱呼為「霞海城隍」。 九份霞海城隍廟（昭靈廟）歷經數次整建，最近一次為民國87年（1988年）開始施工，歷經五年的時間才安座落成，落成後廟埕前有寬廣的車位供香客停放汽車，但因為九份以山而建的地形，停車場是停放於下方民家的屋頂，因此呈現一個饒富趣味的景象。", :address=>"新北市瑞芳區汽車路11號", :image=>"http://img3.okgo.tw/titlepic/b3228_1.jpg", :region=>"瑞芳區", :lat=>25.1110139, :lng=>121.8458792, :categories=>["street_address"]}, {:name=>"濂洞國小", :description=>"「濂洞國小」位於瑞芳區，擁有居高臨下的地理優勢，更擁有面海的絕佳景致，不但清楚可見山脈延伸大海的絕景，還可望見陰陽海的美景。由於校區採依山而建，因此前後棟教室高低皆不同，校舍間以階梯相連，不過加上空間有限，為了有效利用空間，校方特別在階梯中間設置溜滑梯，讓學生可以遊戲，更減少下樓須花費的冗長時間。搭配海底世界的3D彩繪，讓這裡成為孩童的夢幻遊樂場。", :address=>"新北市瑞芳區洞頂路101巷80號", :image=>"http://img3.okgo.tw/titlepic/b3862_1.jpg", :region=>"瑞芳區", :lat=>25.12194, :lng=>121.8603138, :categories=>["street_address"]}, {:name=>"侯硐(猴硐)坑", :description=>"「侯硐坑」位於「猴硐坑礦產園區」內，是一處彰顯歷史、早期採煤所留下來的煤礦坑遺址。昔日採煤，以前進式或後退式採掘，使用鎬煤機挖煤，緩傾斜之採煤面使用鍊條式輸煤機輸煤之。", :address=>"猴硐侯硐路 ", :image=>"http://img3.okgo.tw/titlepic/b2776_1.jpg", :region=>"瑞芳區", :lat=>25.085533, :lng=>121.8281731, :categories=>["establishment", "point_of_interest"]}, {:name=>"侯硐(猴硐)坑", :description=>"「侯硐坑」位於「猴硐坑礦產園區」內，是一處彰顯歷史、早期採煤所留下來的煤礦坑遺址。昔日採煤，以前進式或後退式採掘，使用鎬煤機挖煤，緩傾斜之採煤面使用鍊條式輸煤機輸煤之。", :address=>"猴硐侯硐路 ", :image=>"http://img3.okgo.tw/titlepic/b2776_1.jpg", :region=>"瑞芳區", :lat=>25.085533, :lng=>121.8281731, :categories=>["establishment", "point_of_interest"]}, {:name=>"侯硐(猴硐)坑", :description=>"「侯硐坑」位於「猴硐坑礦產園區」內，是一處彰顯歷史、早期採煤所留下來的煤礦坑遺址。昔日採煤，以前進式或後退式採掘，使用鎬煤機挖煤，緩傾斜之採煤面使用鍊條式輸煤機輸煤之。", :address=>"猴硐侯硐路 ", :image=>"http://img3.okgo.tw/titlepic/b2776_1.jpg", :region=>"瑞芳區", :lat=>25.085533, :lng=>121.8281731, :categories=>["establishment", "point_of_interest"]}, {:name=>"九份輕便路", :description=>"輕便路平行於汽車路與熱鬧的基山街（九份老街），因此只要沿著汽車路旁的樓梯往山上走，或是沿著基山街的樓梯往山下走，即可抵達輕便路。 輕便路的名稱來由是因為1931年日治時期，為了要加強九份與瑞芳之間的貨物運輸，在此興築了「輕便車」軌道，藉由人力推動的台車，既可載人又可載物，「輕便車」便成為九份地區當時最主要的交通工具，八十多年前的輕便路，熱鬧風光程度可不亞於當時商業聚集地的基山街。台灣光復後，交通基礎建設逐漸發達，汽車路取代輕便路而成為主要的連外道路，1954年「輕便車」軌道便面臨拆除的命運。 如今的輕便路熱鬧繁華不再，但道路兩側的歷史建築則別有一番風味，一磚一瓦堆砌出繁華褪去後的古樸風光，居高臨下的道路亦能遠眺依山傍海的九份景色，近年來也越來越多藝文創作者進駐其中，若想要探訪不同風味的九份，不妨來此走走，發現輕便路上的特色小店及藝術巧思。", :address=>"新北市瑞芳區輕便路", :image=>"http://img3.okgo.tw/titlepic/b2963_1.jpg", :region=>"瑞芳區", :lat=>25.1085631, :lng=>121.8402446, :categories=>["route"]}, {:name=>"九份輕便路", :description=>"輕便路平行於汽車路與熱鬧的基山街（九份老街），因此只要沿著汽車路旁的樓梯往山上走，或是沿著基山街的樓梯往山下走，即可抵達輕便路。 輕便路的名稱來由是因為1931年日治時期，為了要加強九份與瑞芳之間的貨物運輸，在此興築了「輕便車」軌道，藉由人力推動的台車，既可載人又可載物，「輕便車」便成為九份地區當時最主要的交通工具，八十多年前的輕便路，熱鬧風光程度可不亞於當時商業聚集地的基山街。台灣光復後，交通基礎建設逐漸發達，汽車路取代輕便路而成為主要的連外道路，1954年「輕便車」軌道便面臨拆除的命運。 如今的輕便路熱鬧繁華不再，但道路兩側的歷史建築則別有一番風味，一磚一瓦堆砌出繁華褪去後的古樸風光，居高臨下的道路亦能遠眺依山傍海的九份景色，近年來也越來越多藝文創作者進駐其中，若想要探訪不同風味的九份，不妨來此走走，發現輕便路上的特色小店及藝術巧思。", :address=>"新北市瑞芳區輕便路", :image=>"http://img3.okgo.tw/titlepic/b2963_1.jpg", :region=>"瑞芳區", :lat=>25.1085631, :lng=>121.8402446, :categories=>["route"]}, {:name=>"猴硐坑礦產園區", :description=>"猴硐，舊名為猴洞，據說早期在附近有許多的山壁佈滿洞穴，且棲息著大量獼猴而得名。猴硐地區蘊藏豐富的煤礦，日治時期，猴硐地區為台灣工業動力重鎮，直到西元1990年，煤礦產業逐漸沒落後，為展現此地區的歷史風華，新北市政府於是便著手進行「猴硐煤礦博物園區」規畫，開始修復、整頓這莫大的礦業遺址，民國99年(西元2010年)，園區正式開幕，進而帶動當地的產業觀光活動。　猴硐地區以兩處平溪線鐵路畫分為兩大景點，一為「猴硐貓村」，另一個就是「猴硐坑礦產園區」，主要以煤礦相關的產物、遺址為鄉關的博物園區，面積非常廣大，園區內的建設與設施，讓礦業文化遺址連成一片，提昇了觀光價值與可看性。", :address=>"猴硐侯硐路 ", :image=>"http://img3.okgo.tw/titlepic/b2777_1.jpg", :region=>"瑞芳區", :lat=>25.085533, :lng=>121.8281731, :categories=>["establishment", "point_of_interest"]}, {:name=>"瑞芳猴硐神社", :description=>"猴硐神社建於日治昭和晚期，位於瑞芳區的猴硐地區，於火車站下車後，沿著「一百階」的參拜道路而上，即可抵達。猴硐神社年代久遠，且因侯杜公路的開闢曾遭到拆除的命運，目前拜殿已被改造為涼亭、本殿已消失，僅存留石製鳥居一座、木製鳥居一座，但空氣中仍瀰漫著濃厚的日本味，鳥居上還清晰可見「奉獻」兩字，與當時出資「瑞三礦業」的雋刻，歷史痕跡深刻。", :address=>"台灣島新北市瑞芳區猴硐", :image=>"http://img3.okgo.tw/titlepic/b3469_1.jpg", :region=>"瑞芳區", :lat=>25.0867953, :lng=>121.8275303, :categories=>["establishment", "point_of_interest", "train_station", "transit_station"]}, {:name=>"九份山磅坑口", :description=>"九份山磅坑口位於輕便路的尾巴，是早期進入九份的主要入口之一。磅坑口為「隧道口」的別稱，原本是用來給從基隆發車的輕便台車通行，穿過磅坑口後能到達九份，之後再到金瓜石。 九份山磅坑口約有五十公尺長，隨著九份礦坑產業的沒落，這條路也不如以往熙來攘往的人煙，取而代之的是一抹屬於歲月刻畫的靜謐。旅客來此可以漫步磅坑口，仔細觀察手工開挖隧道的艱辛痕跡與堅硬的岩石地質。", :address=>"新北市瑞芳區九份輕便路輕便路350號旁", :image=>"http://img3.okgo.tw/titlepic/b3628_1.jpg", :region=>"瑞芳區", :lat=>25.1088551, :lng=>121.8395313, :categories=>["street_address"]}, {:name=>"水圳仔橋", :description=>"「水圳仔橋」位於山尖古道途中，建於日據時代，以運水為主要用途，將水運至日本礦業製煉廠，而今已廢棄，僅存拱橋遺址，此處少有人煙，保有古樸的懷舊風味。", :address=>"新北市瑞芳區山尖路172號旁", :image=>"http://img3.okgo.tw/titlepic/b3037_1.jpg", :region=>"瑞芳區", :lat=>25.112238, :lng=>121.8528237, :categories=>["street_address"]}, {:name=>"九份五番坑", :description=>"九份五番坑鑿於民國十六年，原本為日本人所經營管理，台灣光復後交由九大公司承包，於民國六十年全面停止開採，並因安全問題封閉坑道。坑口前有一座小廣場相當適合團康活動使用，目前整建為五番坑小公園，並設有多項休憩設施，是欣賞九份海景的最佳位置。", :address=>"五番坑就在昇平戲院後", :image=>"http://img3.okgo.tw/titlepic/b2009_1.jpg", :region=>"瑞芳區", :lat=>25.1071921, :lng=>121.841508, :categories=>["establishment", "point_of_interest"]}, {:name=>"九份五番坑", :description=>"九份五番坑鑿於民國十六年，原本為日本人所經營管理，台灣光復後交由九大公司承包，於民國六十年全面停止開採，並因安全問題封閉坑道。坑口前有一座小廣場相當適合團康活動使用，目前整建為五番坑小公園，並設有多項休憩設施，是欣賞九份海景的最佳位置。", :address=>"五番坑就在昇平戲院後", :image=>"http://img3.okgo.tw/titlepic/b2009_1.jpg", :region=>"瑞芳區", :lat=>25.1071921, :lng=>121.841508, :categories=>["establishment", "point_of_interest"]}, {:name=>"國際終戰和平紀念園區", :description=>"日據時期，田中組取得金瓜石礦權後，請浙江籍工頭回鄉招募工人，人數計有2,500人左右，其中又以溫州人最多，福建人次之，為解決住宿問題，在勸濟堂右下方興建工寮，俗稱「溫州寮」，民國31年為安置戰俘而搬遷。太平洋戰爭後，從南洋被俘的盟軍戰俘被遣送到六坑從事採礦工作，並安置於此，因此稱為『督鼻仔寮』；1945年初遷移新店龜山墾殖，直至戰爭結束。1997年臺灣戰俘營紀念協會回到現址立碑紀念，並於每年11月舉行追思會，現規劃為「國際終戰和平紀念公園」。", :address=>"新北市瑞芳區金瓜石祈堂路40號旁 ", :image=>"http://img3.okgo.tw/titlepic/b3038_1.jpg", :region=>"瑞芳區", :lat=>25.1098574, :lng=>121.8602649, :categories=>["street_address"]}, {:name=>"九份文史工作室", :description=>"九份文史工作室為羅濟昆先生創立於民國八十一年，羅濟昆先生自民國七十六年起即以九份文化為主題進行攝影工作，在文史工作室成立以後將他多年來所記錄的九份及收集的資訊免費供遊客欣賞，讓所有到九份的遊客皆能感受最深層的九份。並提供旅遊諮詢、專業導覽及羅濟昆先生所拍攝之九份照片的幻燈片欣賞解說等預約服務，以及學術研究、採訪與出版品的展售，對九份這座懷舊山城的文化推廣不遺餘力。", :address=>"瑞芳鎮九份基山街207號 ", :image=>"http://img3.okgo.tw/titlepic/b503_1.jpg", :region=>"瑞芳區", :lat=>25.1072679, :lng=>121.8423947, :categories=>["street_address"]}, {:name=>"九份文史工作室", :description=>"九份文史工作室為羅濟昆先生創立於民國八十一年，羅濟昆先生自民國七十六年起即以九份文化為主題進行攝影工作，在文史工作室成立以後將他多年來所記錄的九份及收集的資訊免費供遊客欣賞，讓所有到九份的遊客皆能感受最深層的九份。並提供旅遊諮詢、專業導覽及羅濟昆先生所拍攝之九份照片的幻燈片欣賞解說等預約服務，以及學術研究、採訪與出版品的展售，對九份這座懷舊山城的文化推廣不遺餘力。", :address=>"瑞芳鎮九份基山街207號 ", :image=>"http://img3.okgo.tw/titlepic/b503_1.jpg", :region=>"瑞芳區", :lat=>25.1072679, :lng=>121.8423947, :categories=>["street_address"]}, {:name=>"南子吝步道", :description=>"位在南雅漁港旁的南子吝步道為高度約200公尺左右的建行步道，擁有360度無遮蔽山海景觀視野，步道全長不到一公里，途中岔路可往三面臨崖的南子吝山東峰飽覽南雅奇岩景緻，而下方即為濱海公路的明隧道。在這裡不僅能眺望南雅聚落，就連苦苓嶺、無耳茶壺山、半平山、燦光寮山及草山山列、煉銅場、水湳洞、基隆嶼、陰陽海；基隆山及鼻頭角等皆可盡收眼簾，十分推薦前來此處散心賞景、登高望海。", :address=>"新北市瑞芳區南雅漁港附近", :image=>"http://img3.okgo.tw/titlepic/b4075_1.jpg", :region=>"瑞芳區", :lat=>25.1218086, :lng=>121.8882793, :categories=>["establishment", "natural_feature"]}, {:name=>"南子吝步道", :description=>"位在南雅漁港旁的南子吝步道為高度約200公尺左右的建行步道，擁有360度無遮蔽山海景觀視野，步道全長不到一公里，途中岔路可往三面臨崖的南子吝山東峰飽覽南雅奇岩景緻，而下方即為濱海公路的明隧道。在這裡不僅能眺望南雅聚落，就連苦苓嶺、無耳茶壺山、半平山、燦光寮山及草山山列、煉銅場、水湳洞、基隆嶼、陰陽海；基隆山及鼻頭角等皆可盡收眼簾，十分推薦前來此處散心賞景、登高望海。", :address=>"新北市瑞芳區南雅漁港附近", :image=>"http://img3.okgo.tw/titlepic/b4075_1.jpg", :region=>"瑞芳區", :lat=>25.1218086, :lng=>121.8882793, :categories=>["establishment", "natural_feature"]}, {:name=>"十分老街", :description=>"「十分老街」為天燈的發源地，堪稱平溪礦業史中開發最早、規模最大的聚落。十分老街和火車鐵軌並存相連，不但擁有「火車門前過」的獨特鐵道風貌，更是歌手MV、電影的取景勝地。今日老街仍保有舊時的建築風貌，飲食店、天燈工藝品店林立，展現新生機。", :address=>"新北市平溪區十分老街", :image=>"http://img3.okgo.tw/titlepic/b3036_1.jpg", :region=>"平溪區", :lat=>25.0426687, :lng=>121.7766757, :categories=>["establishment", "point_of_interest"]}, {:name=>"平溪老街", :description=>"平溪是離臺北市區不遠的世外桃源，能實踐「慢活、慢慢走」的生活情調。平溪老街有著古樸的風味，山坡以及鐵道兩旁古厝房舍林立，大都多是傳統柑仔店、五金行、小吃店等。自採礦業逐漸沒落後，老街也漸漸沉寂下來。鐵道、山林花鳥與昔日採礦遺跡，都是遊賞的好景點；還有日治時期所遺留下來的防空洞與觀音巖的八仙洞，都是值得參觀、探險的好地方。平溪鐵路也是知名的廣告「張君雅小妹妹」拍攝的地點，每當平溪火車通過老街上方的鐵路就會傳來轟隆轟隆的聲響，每條巷道都可看見行經的火車，形成平溪老街的重要特色。", :address=>"新北市平溪區平溪老街", :image=>"http://img3.okgo.tw/titlepic/b2954_1.jpg", :region=>"平溪區", :lat=>25.0253087, :lng=>121.7388193, :categories=>["establishment", "point_of_interest"]}, {:name=>"平溪老街", :description=>"平溪是離臺北市區不遠的世外桃源，能實踐「慢活、慢慢走」的生活情調。平溪老街有著古樸的風味，山坡以及鐵道兩旁古厝房舍林立，大都多是傳統柑仔店、五金行、小吃店等。自採礦業逐漸沒落後，老街也漸漸沉寂下來。鐵道、山林花鳥與昔日採礦遺跡，都是遊賞的好景點；還有日治時期所遺留下來的防空洞與觀音巖的八仙洞，都是值得參觀、探險的好地方。平溪鐵路也是知名的廣告「張君雅小妹妹」拍攝的地點，每當平溪火車通過老街上方的鐵路就會傳來轟隆轟隆的聲響，每條巷道都可看見行經的火車，形成平溪老街的重要特色。", :address=>"新北市平溪區平溪老街", :image=>"http://img3.okgo.tw/titlepic/b2954_1.jpg", :region=>"平溪區", :lat=>25.0253087, :lng=>121.7388193, :categories=>["establishment", "point_of_interest"]}, {:name=>"菁桐老街", :description=>"菁桐位於平溪線的終點站，已有80年歷史的木造站房吸引許多旅客前來拍照打卡，體驗古典優雅韻味在樸質的自然環境中交融的美感。早期的菁桐因煤礦開發相當熱鬧，隨著礦坑停採後人潮逐漸流失，後來因鐵道復古風情重新吸引觀光人潮，甚至是在鐵軌旁的小涼亭，掛滿了旅客的祈願竹筒，成為別具特色的新景點。出口附近的老街商圈也重拾往日繁華，販售起雞捲、礦工食堂等特色美食與在地農特產，重新打造出熱鬧菁桐的新面貌。", :address=>"新北市平溪區菁桐老街", :image=>"http://img3.okgo.tw/titlepic/b3351_1.jpg", :region=>"平溪區", :lat=>25.0238631, :lng=>121.7237113, :categories=>["establishment", "point_of_interest", "train_station", "transit_station"]},