[
  {:name=>"洛德城堡", :description=>"「台北市北投運動中心・洛德城堡」寬敞的園區，以城堡、玩具、公仔等多樣化充滿童趣的造景打造完整的夢幻樂園。包羅萬象的園區空間，包含了夏季戶外樂園、冬季戶外樂園、小獅城堡、體適能區、水適能區等完善的運動休閒環境，更提供露臺餐廳和戶外野餐，還有完善的課程～是大人小孩假日出遊的好去處。", :address=>"台北市中正區汀洲路三段160巷底", :image=>"http://img3.okgo.tw/titlepic/b3772_1.jpg", :region=>"中正區", :lat=>25.0122646, :lng=>121.5332374, :categories=>["深度", "慢活", "親子", "有趣"]}, 
  {:name=>"臺北國際藝術村", :description=>"2001年，台北市政府文化局在原養護工程處辦公室舊址成立了「台北國際藝術村」，將一棟閒置的四層樓舊建築重新規劃為藝術村，成為藝術家創作與居住的空間。 藝術村一樓設有展演廳和音樂酒吧，晚上有一系列以爵士樂為主的現場音樂表演活動可以欣賞；二、三樓是十三間藝術家創作與生活的工作室和居住空間；頂樓則設置了駐村藝術家的交誼廳及戶外展演空間。每年在春、秋二季，藝術家將開放工作室讓民眾參觀。讓社區與藝術充分結合。", :address=>"台北市中正區北平東路7號(捷運板南線 善導寺站一號出口，警政署後方 )", :image=>"http://img3.okgo.tw/titlepic/b3674_3.jpg", :region=>"中正區", :lat=>25.0450001, :lng=>121.52317, :categories=>["深度", "特色", "慢活", "親子"]}, 
  {:name=>"中正紀念堂", :description=>"先總統　蔣介石先生，名「中正」，於中華民國64年4月5日崩逝，為紀念蔣介石先生，政府在民國65年籌建中正紀念堂，主體面積約一萬五千平方公尺，堂高70公尺，以寶藍琉璃瓦頂綴八角形的塔頂，而外觀為雪白色大理石作為堂體，堂內規劃有文物展視室、中央通廊、中正藝廊、中正紀念圖書館、蔣公紀念室，兩側分別為廡殿頂的國家戲劇院與歇山頂的國家音樂廳，而面臨中山南路的「大中至正門」正牌樓，高30公尺，寬80公尺，側牌樓兩座，分別為「大忠門」及「大孝門」位於紀念堂南北兩側，各高13.8公尺，寬19.7公尺，在愛國東路者，為大孝門；在信義路者，為大忠門。為多元化的紀念堂，目前已讓人文、建築及科技作最完美的集合，成為台北市民休閒交流的重要場所。", :address=>"中正區中山南路21號", :image=>"http://img3.okgo.tw/titlepic/b251_9.jpg", :region=>"中正區", :lat=>25.0367564, :lng=>121.519047, :categories=>["健康", "運動", "交通", "慢活", "親子"]}, 
  {:name=>"台北植物園", :description=>"台北植物園隸屬行政院農業委員會林業試驗所，佔地約8公頃，日治時期(西元1896年)，日人就建立了當時面積不到5公頃的台北苗圃，一直到了西元1921年，由林業試驗場接管後，才正式改名為今日的台北植物園。在園區的您可以看到各種不同的植物，而園區的用心，更是隨意可見，舉凡是為植物設置了解說看板、安排志工為民眾解說、將園內的植物分為不同的參觀主題、規劃導覽步道，在在都是為了提供民眾一個優質的休憩並極富教育的場所，除此之外，園區還可以在數百株棕櫚科植物的樹幹上，看到二次世界大戰的砲彈痕跡，以及清朝布政使司衙門的官式建築，感受歷史曾留下的足跡。今日的植物園不但是一處休憩教育的好場所，更成為台北市市民運動的好地方，只要大家一起共同來維護植物園，那麼這塊寶地就能永久持續的留給我們的下一代。", :address=>"中正區南海路53號 ", :image=>"http://img3.okgo.tw/titlepic/b252_10.jpg", :region=>"中正區", :lat=>25.031211, :lng=>121.510191, :categories=>["慢活", "親子", "深度" ,"特色"]}, 
  {:name=>"華山1914文創園區", :description=>"華山1914文創園區最早為1914年時的芳釀株式會社造酒廠，後為日治政府改制收買成為台灣總督府專賣局台北酒工廠，而光復後由政府接收，改名為台灣省專賣局台北酒工廠，而後歷經一連串的改制與託管經營等，在2004年封園整修，結合舊廠區與公園區，打造出「華山1914文化創業產業園區」，並在2005年重新開園。 華山1914文創園區結合了戶外藝文表演與室內展演，提供給藝文界、非營利團體與個人使用的創作場所，以藝文為主，規劃有多元多館室、排練展演空間、華山部落格、藝文資訊站、圖書資料教室、親子園地等，周邊更有廣闊的綠地空間，園區內也有多間餐廳、店舖、藝廊等商業設施，目前至今已舉辦多次藝文展演活動，園區內的舊建築物翻新、裝置藝術，吸引民眾前來參觀、拍照。", :address=>"台北市中正區八德路一段1號", :image=>"http://img3.okgo.tw/titlepic/b4079_1.jpg", :region=>"中正區", :lat=>25.0441499, :lng=>121.5294408, :categories=>["深度", "親子", "待分類", "特色"]}, 
  {:name=>"國立歷史博物館", :description=>"國立歷史博物館位在南海路的植物園內，外觀為中國式宮殿建築，設於民國四十四年，館內收藏眾多華夏文物及台灣文物，包括新石器時代彩陶、青銅器、陶器、石雕、文獻及字畫等，並不定期舉辦各類型的特展，具有濃厚的藝術文化氣息。館中並設有忘言軒和挹翠樓餐飲區供應民眾茶點飲品，還可在荷風閣休憩區中眺望植物園的優美景致。", :address=>"台北市南海路49號", :image=>"http://img3.okgo.tw/titlepic/b128_2.jpg", :region=>"中正區", :lat=>25.031454, :lng=>121.511227, :categories=>["深度", "親子", "慢活", "待分類"]}, 
  {:name=>"自來水博物館", :description=>"自來水博物館建於西元1908年，至今已有一百餘年的歷史，博物館外觀為巴洛克式風格，左右對稱的建築格式增添立體感，牆面上佈滿了典雅的雕刻，相當具有異國風情，於民國八十六年時經評定為國家三級古蹟。自來水博物館規劃有多個主題區域，展示自來水廠中的設備，包括有抽水機組設備、避雷器、抽氣泵浦、配電變壓器及馬達等專業設備，此外還有時間廊展示區及影視媒體放映室。", :address=>"中正區思源街1號", :image=>"http://img3.okgo.tw/titlepic/b130_1.jpg", :region=>"中正區", :lat=>25.0134702, :lng=>121.5304737, :categories=>["深度", "親子", "慢活", "待分類"]}, 
  {:name=>"國立台灣博物館", :description=>"國立台灣博物館是臺灣歷史最悠久的博物館，於日明治四十一年(西元1908年)成立，當時稱為「臺灣總督府民政部殖產局附屬博物館」，國民政府來臺後，更名為「臺灣省立博物館」，博物館外觀造型採希臘復古樣式，館內設有五個研究組分別為人類學、地學、動物學、植物學及推廣組，並且也經常提供多元化的活動，讓民眾認識台灣珍貴的文化及生物資源，進而更愛習台灣這塊土地。", :address=>"中正區襄陽路2號", :image=>"http://img3.okgo.tw/titlepic/b253_1.jpg", :region=>"中正區", :lat=>25.042902, :lng=>121.51503, :categories=>["深度", "親子", "慢活", "待分類"]}, 
  {:name=>"國家文創禮品館（原中華工藝館）", :description=>"中華工藝館為財團法人台灣手工業推廣中心附屬單位，為目前台灣規模最大的民間藝品展示館，館內展售藝品大致可分為高級藝術家具、珠寶飾品、家庭陳飾品及一般禮品，包括有琉璃水晶、竹木藝品、原住民工藝品、唐三彩瓷器、台灣玉器與特色皮雕等四萬多件藝品，並提供外幣兌換、出口及報關、貨品包裝與郵包寄送等服務，提供國外的觀光客便捷的服務。", :address=>"台北市徐州路１號", :image=>"http://img3.okgo.tw/titlepic/b132_1.jpg", :region=>"中正區", :lat=>25.0419501, :lng=>121.5190285, :categories=>["深度", "親子", "特色", "有趣"]}, 
  {:name=>"郵政博物館", :description=>"郵政博物館成立於1965年，早期館社位置在新店的郵政總局舊辦公室，至1984年才遷館到現在的地址，郵政博物館為了讓民眾能更認識郵政業務，在館內2、3樓「歷史之部」展示從秦朝時代至今日的郵務機器演變過程，4樓「業務之部」介紹郵政服務，5樓「集郵之部」展示八萬多枚郵票，6樓為特展區，7樓為圖書館，收藏了一萬多冊的郵政圖書，歡迎大家一同來參訪這棟郵務世界。", :address=>"中正區重慶南路2段45號", :image=>"http://img3.okgo.tw/titlepic/b250_1.jpg", :region=>"中正區", :lat=>25.0315513, :lng=>121.5147551, :categories=>["親子", "特色", "有趣", "待分類"]}, 
  {:name=>"自來水園區", :description=>"「自來水園區」位於台大公館商圈附近，佔地面積約有20公頃，為台北自來水的發源地。自來水園區內除自來水博物館之外，還有公館水岸廣場、水鄉庭園、生態景觀步道及水源地苗圃等區域，民眾可到此戲水、健行親近大自然，並進一步了解自來水廠的演進歷史及流程。 園區內除了水源相關場館外，還有佔地約有5公頃的小觀音山，保存了原生闊葉林相生態可供探索，周邊還緊鄰「寶藏巖國際藝術村」、「客家文化主題公園」及「河濱自行車道」，提供您旅遊的多元選擇。", :address=>"臺北市中正區思源街1號 ", :image=>"http://img3.okgo.tw/titlepic/b3547_1.jpg", :region=>"中正區", :lat=>25.0134702, :lng=>121.5304737, :categories=>["慢活", "親子", "特色", "有趣"]}, 
  {:name=>"二二八和平公園", :description=>"台北二二八和平公園建於清光緒二十五年(西元1899年)，是台北市創建最早的公園，原名為台北公園，又稱為新公園。民國八十四年二二八紀念碑於台北公園中揭幕，並將公園易名為二二八和平公園，紀念這段群族對立的嚴重事件，悼念於這場衝突中受害的民眾。公園內設有多項古物，包括清朝時所製的老火車頭、急公好義坊、黃氏節孝坊及碑林等，也設有鯉魚池、日晷儀、杏壇、和平雕像及和平鐘等景致，園區草木扶疏綠意盎然，東南側設有二二八紀念館，歷經百年風華的二二八公園相當具有歷史意義，是民眾假日休閒的好去處。", :address=>"台北市凱達格蘭大道3號", :image=>"http://img3.okgo.tw/titlepic/b436_6.jpg", :region=>"中正區", :lat=>25.0403631, :lng=>121.515469, :categories=>["深度", "特色", "待分類"]}, 
  {:name=>"水資源教育館", :description=>"水資源教育館位於自來水園區之內，鄰近公館捷運站，已於民國103年11月正式對外開放，目前暫時採取免費入館的方式開放民眾參觀體驗，但因參觀需搭配闖關遊戲，有人數限制，建議民眾事先預約。 館內展區豐富多元，設有主題看板展示區、雨水利用模組、節水展示區、多媒體互動展示及親子遊憩區等主題區，採用寓教於樂的方式帶領參觀民眾了解水資源的珍貴與奧秘，再加上3D電影劇場體驗，帶來更逼真的感官體驗，讓大小朋友皆玩得不亦樂乎。", :address=>"臺北市中正區思源街1號 ", :image=>"http://img3.okgo.tw/titlepic/b3609_1.jpg", :region=>"中正區", :lat=>25.0134702, :lng=>121.5304737, :categories=>["慢活", "親子", "健康", "有趣"]}, 
  {:name=>"台北市成功高中昆蟲博物館", :description=>"成功高中昆蟲博物館於民國60年1月成立，早期由陳維壽老師所收藏的昆蟲標本與資料為基礎，蛻變成今天的研究保護臺灣蝴蝶資源中心，目前標本總數約三萬件，並也提供豐富的生物資源作為國中小學教學用。", :address=>"台北市濟南路一段71號", :image=>"http://img3.okgo.tw/titlepic/b256_1.jpg", :region=>"中正區", :lat=>25.0423335, :lng=>121.5236872, :categories=>["深度", "親子", "有趣", "慢活", "健康"]}, 
  {:name=>"台灣藝術教育館", :description=>"位在植物園中的台灣藝術教育館設於民國四十五年，隸屬於教育部，為扎下藝術的根基、推廣藝術文化而設。藝術教育館大致可分為中型演藝廳、南海學園館本部藝廳與中正藝廊三個部份，館中將不定期舉辦攝影展與書畫展等，以及音樂演奏、舞蹈及戲劇等演出，也經常舉行與藝術相關的專題講座及活動，培養民眾對於藝術層面的認知及欣賞。", :address=>"台北市中正區南海路47號", :image=>"http://img3.okgo.tw/titlepic/b2406_1.jpg", :region=>"中正區", :lat=>25.0317407, :lng=>121.5118945, :categories=>["深度", "慢活", "親子", "健康", "有趣"]}, 
  {:name=>"大稻埕碼頭", :description=>"早期的大稻埕，原是平埔族的居住地，後來因萬華同安人發生激烈的械鬥，許多人便移至大稻埕定居，此後，這裡便成為台北盆地內的物資集散中心，與重要的外貿重要地點，當地的領事館、洋行、商號雲集，茶館、茶行林立，這裡便成了當時全口最大的茶葉、樟腦交易中心，今日的大稻埕，仍可在街道裡看出一些些的遺留下的歷史記錄，而碼頭更經常成為演出活動的舉辦地點，我相信這裡將永遠不會被人們所遺忘。", :address=>"台北市大同區民生西路399號2樓", :image=>"http://img3.okgo.tw/titlepic/b508_1.jpg", :region=>"大同區", :lat=>25.0569886, :lng=>121.5094259, :categories=>["慢活", "親子", "特色", "交通"]}, 
  {:name=>"迪化街", :description=>"迪化街上的店家大約有250家，其範圍包括了南京西路至歸綏街口、甘州街、保安街交叉口朝陽公園、甘谷街、南京西路一帶，早期這裡因為靠近淡火河，成為台北繁華的商業區之一，今日因為街道狹窄，因此發展有限，但在政府大力推動年貨大街後，昔日的盛況又再度出現，成為南北貨、中藥和布匹批發商集中地，歲末時，這裡的人潮更是擠得水洩不通，非常熱鬧。", :address=>"迪化街1段(南京西路至歸綏街口)、甘州街、保安街交叉口、朝陽公園、甘谷街、南京西路一帶", :image=>"http://img3.okgo.tw/titlepic/b258_1.jpg", :region=>"大同區", :lat=>25.0591559, :lng=>121.512811, :categories=>["深度", "特色", "親子", "慢活"]}, 
  {:name=>"延平河濱公園", :description=>"位於大稻埕碼頭附近的「延平河濱公園」平常除了是婆婆媽媽、老爺爺早起打極拳、跳土風舞的場地外，也是許多人週休假日出遊的好去處。一大片綠意盎然的草地以及綿延成蔭的樹林吸引許多人來此踢球、放風箏，而且河濱公園內有籃球場、網球場、溜冰場、槌球場、羽球場及自行車租借站等等，設備相當齊全。 「延平河濱公園」鄰近熱鬧的迪化街、霞海城隍廟以及永樂市場，到碼頭邊欣賞完河岸景致後，可以步行至迪化街購買中藥，或是到永樂市場去逛逛種類繁多布品、吃傳統浮水魚羹，享受週末的悠閒時光。", :address=>"臺北市忠孝橋至延平北路九段中洲抽水站之間堤外高灘地", :image=>"http://img3.okgo.tw/titlepic/b2982_1.jpg", :region=>"大同區", :lat=>25.1074422, :lng=>121.4717338, :categories=>["慢活", "親子", "特色", "運動"]}, 
  {:name=>"台北當代藝術館", :description=>"「台北當代藝術館」位於台北市大同區的中山捷運站附近，交通便捷，所在的建築物建於1921年，歷史悠久，為日治時期專門供給日人子弟受教育的「建成小學校」。面寬有120公尺寬的兩層樓建築，採紅磚壁與木材屋架，並結合了西方建築柱式與黑瓦斜屋頂，融合了中西方的建築特色，打造出U字型的校舍建築與空間。 1945年後，建成小學校舍就被轉用為新成立的台北市政府辦公廳舍，近五十年的時間這棟建築扮演著台北市政府的運轉中樞角色，2001年後這棟已成為市定古蹟的舊市府被重新修復、再次打造成「台北當代藝術館」。 台北當代藝術館將藝術、古蹟、科技三者做了巧妙的結合，辦理多檔精采絕倫且豐富多元的當代藝術展覽，成為了台北市藝文發展的重要據點，並且提供了互動性且整合度強的展覽平台，鼓勵多元面貌的藝術創作，開拓出極具前瞻性與創意的新文化思維。 【參觀須知】1. 請勿於展場內高聲談笑、追逐嬉戲、飲食、吸煙及拋棄紙屑、雜物。2. 請勿於展場內使用行動電話進行談話。3. 服裝不整、攜帶寵物者謝絕進入參觀。4. 本館目前全面開放攝影，為維護現場觀展品質，請勿使用閃光燈、腳架以及錄影，展場工作人員亦不提供攝影服務，不便之處敬請見諒。同時請尊重藝術家之智慧財產權及作品版權所有。", :address=>"台北市大同區長安西路39號", :image=>"http://img3.okgo.tw/titlepic/b3535_1.jpg", :region=>"大同區", :lat=>25.0507246, :lng=>121.5189745, :categories=>["深度", "慢活", "特色", "待分類"]}, 
  {:name=>"台原亞洲偶戲博物館（林柳新紀念偶戲博物館）", :description=>"台原亞洲偶戲博物館位於大稻埕內，原名為「林柳新紀念偶戲博物館」，鄰近迪化老街，建築物為兩棟並陳的四層樓房，規劃有博物館辦公室、雕刻工坊、DIY教室、偶戲特展室、精品典藏空間，以及適合各類專業演出的納豆劇場（表演廳），將兩百坪左右的空間使用的淋漓盡致，設備相當完善。 博物館會不定期策劃各項偶戲展覽，並且開設布袋戲雕刻製作、偶戲大師示範表演、親子偶戲劇場、傳統偶戲技術推廣等課程，讓民眾更容易參與偶戲的藝術世界，將傳統偶戲文化永續傳承，並且體會偶戲表演的樂趣與藝術美感。", :address=>"臺北市大同區西寧北路79-1號", :image=>"http://img3.okgo.tw/titlepic/b3527_1.jpg", :region=>"大同區", :lat=>25.0557493, :lng=>121.5090952, :categories=>["深度", "特色", "慢活", "有趣"]}, 
  {:name=>"台北孔廟", :description=>"孔子生於周靈王21年8月27日(陰曆)，經專家研究換算為國曆的9月28日，因此便將該日訂為孔子誕辰紀念日，又稱為教師節。孔廟主祀大成至聖先師孔子，以及歷代的先賢、先儒，大龍峒老街裡就座落著一座清光緒年間（西元一八七九年）建構的「孔廟」，而後歷經戰爭、光復、修復，今日的孔廟，已作為為集會、講座、讀經及書法等研習課程及藝文活動之用，每年的九月二十八日，是孔子誕辰紀念日，當天還會舉行隆重的祭孔大典，表達對孔子的崇敬，並且還會有來自各地的國內外人士來此觀賞由學生在大成殿外的月台上，表演八佾舞。", :address=>"大同區大龍街275號", :image=>"http://img3.okgo.tw/titlepic/b259_6.jpg", :region=>"大同區", :lat=>25.0727623, :lng=>121.5161793, :categories=>["深度", "慢活", "特色", "待分類"]}, 
  {:name=>"美麗華百樂園摩天輪", :description=>"美麗華百樂園位在台北市中山區，經過六年的規劃籌建後，於民國九十三年十一月正式開幕營業，並建有本館及漾館兩區，為一座多元化的休閒購物中心。美麗華百樂園中設有精品銷售及美食天地，還有全台灣首座架設於頂樓的百米摩天輪，夜晚時亮起「天樂、地彩、風舞」三個主題的霓虹燈，變化萬千的繽紛景致，是許多情侶約會的地點。此外還有高二十一公尺，寬二十八公尺的巨型螢幕，配合二Ｄ及三Ｄ的影片播放，讓觀賞民眾有身歷其境的感受。", :address=>"台北市敬業三路20號 ", :image=>"http://img3.okgo.tw/titlepic/b300_1.jpg", :region=>"中山區", :lat=>25.0833072, :lng=>121.5571648, :categories=>["", "", "", ""]}, 
  {:name=>"大佳河濱公園", :description=>"大佳河濱公園位於台北市中山區，面積約420,000平方公尺，原稱基河公園，經台北市政府開發整建為都會型綠化公園，其中又以大佳河濱段為一座非常有特色的親水性運動公園。公園設有大型的景觀噴泉池，直徑長達125公尺，中央水柱最高達75公尺，每日均會有噴水表演，但基於遊客安全，並不開放民眾在此戲水，除此之外，一望無際、視野寬闊的河岸親水草坪與籃球場、網球場、羽球場、搥球場等運動設施，都是供民眾闔家歡聚、活動筋骨、嬉戲的好場所。", :address=>"中山區基隆河大直橋至中山橋（大佳段）", :image=>"http://img3.okgo.tw/titlepic/b175_1.jpg", :region=>"中山區", :lat=>25.07469, :lng=>121.5411006, :categories=>["親子", "有趣", "健康", "交通", "用餐"]}, 
  {:name=>"花博新生公園(迷宮花園）", :description=>"花博新生公園為台北圓山花博三處之一，而此處因迷宮公園吸引旅客打卡成為熱門景點，除了迷宮外，更有台北玫瑰園及大草皮、自行車道、彩色水管等。迷宮花園為五做迷宮組成的八卦圖，外圍較高的成人迷宮是垂榕綠籬，而內圈較矮的兒童迷宮則是樹蘭綠籬，各有討站，當走到中央會發現隱藏在期中的城市、花香與飛鳥、怪獸、螞蟻等圖案。", :address=>"台北市中山區新生北路三段105號", :image=>"http://img3.okgo.tw/titlepic/b175_1.jpg", :region=>"中山區", :lat=>25.0685824, :lng=>121.5296094, :categories=>["慢活", "親子", "交通", "健康", "有趣"]}, 
  {:name=>"林安泰古厝", :description=>"林安泰古厝位在濱江公園中，是北台灣保存完整的傳統建築，林氏祖先林堯於清乾隆十九年(西元1754年)自安溪渡海抵台，其子林回於艋舺經商有成，清乾隆四十八年(西元1783年)於現今四維路附近興建一座傳統四合院，並以祖籍安溪及商號榮泰，將宅院命名為「安泰」，在建成後陸續擴建左右廂房、門廳及書房等，目前格局為兩進四廂房。民國六十年代台北市政府為拓寬道路遇拆除林家古厝，林家族人林思訓先生決定將拆除後的原材料交由市政府編號收藏，因此林安泰古厝才能在濱江公園中重現風貌。林安泰古厝的整體建築雖不特別華麗新艷，但嚴謹莊重，且雕刻工藝相當精緻，像是四季花卉、仙鶴、喜鵲、蝙蝠、福祿壽及老萊子娛親等圖案，最特別的門廳旁的團龍爐透刻，共有六條龍交錯盤結，而這六條龍指得就是林回的六個兒子。", :address=>"台北市中山區濱江街5號", :image=>"http://img3.okgo.tw/titlepic/b289_1.jpg", :region=>"中山區", :lat=>25.071749, :lng=>121.5303571, :categories=>["深度", "慢活", "親子", "特色"]}, 
  {:name=>"中山美術公園", :description=>"位在民族東路和中山北路交叉口、市立美術館南邊的中山美術公園，於民國87年6月啟用，園區面積約10.5公頃，設有水景藝術景觀區、精緻草花展示區、地景雕塑區、陳靖娟小姐紀念雕像區、浮面藝術展示區、戶外劇場及多功能草坪區，這裡原來是軍方「圓明園」、「彩虹賓館」的舊址，但為給台北市民一處休憩的生活環境，因而將此地開闢。", :address=>"中山北路以東，民族東路以北", :image=>"http://img3.okgo.tw/titlepic/b261_1.jpg", :region=>"中山區", :lat=>25.0681993, :lng=>121.5363041, :categories=>["深度", "親子", "健康", "慢活", "交通"]}, 
  {:name=>"台北市立美術館", :description=>"位於中山美術公園內的台北市立美術館，是台灣首座現代美術館，設有展覽室、服務中心、售票處及美術紀念品店等服務區，館內主要辦理國內外重要的大型展覽、美術競賽，並且樓層也經常更換不同的展覽主題，除此之外，每年也定期出版美術期刊等刊物，這裡更成為台北市民休閒的最佳去處。", :address=>"中山北路3段181號", :image=>"http://img3.okgo.tw/titlepic/b262_1.jpg", :region=>"中山區", :lat=>25.0725939, :lng=>121.5248517, :categories=>["深度", "親子", "健康", "慢活", "交通"]}, 
  {:name=>"行天宮", :description=>"位於台北市中山區的行天宮，一般俗稱「恩主宮廟」，由玄空師父親自打理建廟事務，並於民國56年(西元1967年)時建立，其廟宇供奉「關公關雲長」，莊嚴樸實的廟宇因靈驗而香火鼎盛，許多商場也會來此祈求生意興隆，這裡更為信徒身、心、靈寄託的空間場所。", :address=>"中山區民權東路2段109號", :image=>"http://img3.okgo.tw/titlepic/b264_1.jpg", :region=>"中山區", :lat=>25.0628658, :lng=>121.5338733, :categories=>["深度", "特色", "交通", "待分類"]}, 
  {:name=>"台北忠烈祠", :description=>"台北忠烈祠建於民國五十八年，位在台北圓山大飯店旁，佔地遼闊周圍約有萬坪的草地，主體為仿北京故宮太和殿的中式建築，忠烈祠內供奉抗日戰爭、國共內戰及中華民國建國前的革命烈士，共約三十九萬位將士官兵，每年春秋兩季國家元首皆會率朝政官員前來致意，十月份國慶時更吸引國內外大批民眾前來參觀。參觀忠烈祠還有一處重點，那就是每小時一次的衛兵交接儀式，大門前不茍言笑的衛兵帶著嚴謹的態度，做好每一次的儀式，就像是對祠堂中的烈士致意，令民眾讚賞不已。", :address=>"台北市北安路139號", :image=>"http://img3.okgo.tw/titlepic/b291_1.jpg", :region=>"中山區", :lat=>25.0781248, :lng=>121.5302507, :categories=>["深度", "特色", "交通", "待分類"]}, 
  {:name=>"圓山大飯店", :description=>"矗立於半山上的圓山大飯店，創立於民國41年(西元1952年)，而後陸續有游泳池、網球場、餐廳、咖啡廳等建設，飯店有著雄偉的古宮廷式建築外觀，日治時期這裡曾是日本神社，今日更成為國家招待外賓的場所與會議場地，並且也為來自各地的旅人提供一處優質的休憩之地。", :address=>"中山北路4段1號", :image=>"http://img3.okgo.tw/titlepic/b267_1.jpg", :region=>"中山區", :lat=>25.0761801, :lng=>121.5261925, :categories=>["慢活", "親子", "交通", "用餐"]}, 
  {:name=>"饒河街觀光夜市", :description=>"饒河夜市是北台灣大型的觀光夜市，位在八德路四段至塔悠路口間，繞河街約有六百公尺，大約成立於民國七十六年，並成立饒河街觀光夜市管理委員會，且規劃標誌與吉祥物貓頭鷹，有效管理夜市。饒河夜市兩端入口處各有一座牌樓，晚間皆會亮起璀璨的燈火，夜市中有美食、飾品、遊戲、精品、民俗技藝及百貨等約四百多個攤位與店家，吸引許多民眾前來購物及品嘗美食小吃。", :address=>"台北市饒河街", :image=>"http://img3.okgo.tw/titlepic/b121_1.jpg", :region=>"松山區", :lat=>25.0504196, :lng=>121.5748616, :categories=>["親子", "有趣", "交通", "用餐"]}, 
  {:name=>"大安森林公園", :description=>"大安森林公園於民國八十三年正式對外開放，位外台北市中心地段良好，佔地面積約二十六公頃，公園內種植多樣化的植物，將其規劃為不同的主題區域，包括香花區、竹林區、喬灌木區及棕梠樹區等，是台北市的「城市之肺」。園區中設置有露天音樂台、活動廣場、兒童遊戲台、慢跑道及公共自行車道等設施，其中露天音樂台可容納九百餘人，經常舉行藝文音樂性質的表演活動。大安森林公園中除了綠意盎然的植物之外，經濟部水資源局也在此擺設省水器材、水質淨化模廠及公廁示範系統等設備，提醒民眾珍惜水資源的重要性。", :address=>"台北市新生南路2段1號", :image=>"http://img3.okgo.tw/titlepic/b273_1.jpg", :region=>"大安區", :lat=>25.0310609, :lng=>121.535552, :categories=>["慢活", "親子", "健康", "有趣", "運動", "交通"]}, 
  {:name=>"蒙藏文物展示中心", :description=>"蒙藏文物展示中心位於師大文教區青田街住宅區內，中心佔地約三百多坪，展示中心的外觀相當具有特色，為一棟仿西藏寺廟的建築，中心共分為4層樓，設有文物展示區、圖書館、視聽教室、小型會議室、演講廳等，並且也不定期舉辦演講、歌舞表演、畫展、紀念法會，為一座多功能專業蒙藏文化中心，也成為國內最佳的蒙藏文物推廣場所。", :address=>"台北市青田街八巷三號", :image=>"http://img3.okgo.tw/titlepic/b271_1.jpg", :region=>"大安區", :lat=>25.027661, :lng=>121.5313828, :categories=>["深度", "特色", "慢活", "待分類"]}, 
  {:name=>"清真寺", :description=>"位於台北市大安區的清真寺，外觀建築因獨特而讓人更是一目了然這裡就是清真寺，寺廟於民國49年(西元1960年)落成，寺內肅穆莊嚴，主要提供回教人士在此作禮拜與集會，並且也設有回教圖書館、供回教教徒閱覽。", :address=>"台北市新生南路二段62號", :image=>"http://img3.okgo.tw/titlepic/b272_1.jpg", :region=>"大安區", :lat=>25.0279341, :lng=>121.534195, :categories=>["深度", "特色", "交通", "待分類"]}, 
  {:name=>"台北龍山寺", :description=>"萬華龍山寺落成於清乾隆五年(西元1740年)，歷史悠久的龍山寺將過多次的重建，寺廟中的主祀神祇為觀世音菩薩，並供奉有註生娘娘、文昌帝君、城隍爺、地藏王菩薩及媽祖等眾多神祇。龍山寺佔地一千八百多坪，整體建築格局為「日」字型，是三進四合院的傳統宮殿建築，分為前殿、正殿、後殿及左右護龍，廣場前部分石板是早期自中國渡海來台用來壓艙的石板，殿前有一對在台灣獨一無二的銅鑄龍柱，廟宇外觀氣派富麗堂皇，擁有彩繪、木刻、石雕及剪黏等精湛的工藝裝飾，為國家二級古蹟，除了是當地民眾的信仰中心，也是盛名於全台灣頗具威望的廟宇。", :address=>"台北市萬華區廣州街211號", :image=>"http://img3.okgo.tw/titlepic/b276_3.jpg", :region=>"萬華區", :lat=>25.0367954, :lng=>121.4999306, :categories=>["深度", "特色", "交通", "待分類"]}, 
  {:name=>"剝皮寮老街(剝皮寮歷史街區)", :description=>"「剝皮寮歷史街區」位於臺北市萬華區一帶，北臨老松國小，東至昆明街，南面廣州街，西接康定路，為臺北市今日碩果僅存的清代街道之一。 「剝皮寮」之名始於戰後的1950年代，一說為此處為剝獸皮之所在；一說則乃因清朝時期福州商船運進杉木，在此剝去樹皮而得名。從舊有文獻可見剝皮寮聚落成形於1850年代的清代早期，開發至今已有兩百多年的時間；日治時期將原本窄小的道路拓寬、拉直。1895年此處為唐景崧力主台灣民主國，並發起台灣仕紳遊行的起點。而後由於座為電影《艋舺》取景處而成為台北市的熱門景點之一。", :address=>"台北市萬華區廣州街與康定路口", :image=>"http://img3.okgo.tw/titlepic/b3861_2.jpg", :region=>"萬華區", :lat=>25.036838, :lng=>121.5021648, :categories=>["深度", "特色", "交通", "親子", "用餐"]}, 
  {:name=>"西門町", :description=>"「西門町」這個名稱訂於民國十一年(西元1922年)，日治時期台北城內為民眾的主要居住地，城外的西門地區就成為居民的休憩場所。西門町在西元1896年時成立首家戲院「東京亭」，之後戲院就成為西門町主要的娛樂活動，並發展出其他的商業店家，但在東區崛起後，西門町沉寂了一段時間，直到捷運完工加上市政府的完善規劃，現今聚集電影院、百貨業、娛樂業及美食店家進駐，是時下年輕族群喜愛的娛樂購物商圈。", :address=>"台北市成都路1號", :image=>"http://img3.okgo.tw/titlepic/b277_1.jpg", :region=>"萬華區", :lat=>25.042604, :lng=>121.508051, :categories=>["特色", "交通", "有趣", "用餐", "待分類]}, 
  {:name=>"華西街觀光夜市", :description=>"華西街觀光夜市鄰近龍山寺，自民國四十年發展至今已將近有五十個年頭，是台灣首座觀光夜市，入口處有一座傳統中式牌樓，街道掛著紅色燈籠，相當具有鄉土特色，主要以台灣各種山產野味及海鮮料理為主。華西街觀光夜市中最特殊的料理首推蛇肉及蛇酒，據說蛇料理多具有驅毒活血的功效，到了晚間人潮漸多時，蛇肉店家還會有殺蛇及逗蛇的表演，吸引民眾圍觀。此外，像是大鼎羹、台南擔仔麵及魷魚羹等美食也非常受到民眾歡迎，夜市裡多是營業數十年的老字號店家。", :address=>"台北市華西街1號(萬華火車站至華西街一帶)", :image=>"http://img3.okgo.tw/titlepic/b118_1.jpg", :region=>"萬華區", :lat=>25.0379439, :lng=>121.4984439, :categories=>["親子", "特色", "用餐", "交通"]}, 
  {:name=>"青年公園", :description=>"青年公園位於萬華區西側，為一座綜合性的開放公園，面積約24.44公頃，其實日據時代，這裡曾經是練兵場，後來又改建南機場、台北高爾夫球俱樂部，一直到了民國63年(西元1974年)，改由台北市政府接管後，改建青年公園，民國66年9月完工，公園內的設施非常的完善，除了有高爾夫球場、游泳池、網球場是需要付費使用的，其他籃球場、羽球場、棒球場、溜冰場、網球練習牆、野外運動場都是可以免費使用的運動遊樂設施，除此，園區內還設有盆栽館、閱覽室、視聽教室、露天音樂台、駐警室等社教服務設施，在在都是要讓市民有一處優質的休閒好去處，公園內美麗的景致更是道不盡的，大量的綠色植物與花卉，讓人彷彿置身在森林浴中，身心皆獲得調劑，難怪這裡成為市民大眾週休假日的休憩好去處。", :address=>"萬華區水源路199號", :image=>"http://img3.okgo.tw/titlepic/b274_1.jpg", :region=>"萬華區", :lat=>25.022269, :lng=>121.5070334, :categories=>["慢活", "親子", "健康", "運動"]}, 
  {:name=>"紅樓劇場", :description=>"西門町的紅樓劇場建於西元1908年，距今已有百餘年的歷史，是台灣首座由官方興建的公營市場，以紅磚及大綱樑塑造的建築充滿異國風情，當時是藝術及娛樂的中心，曾有過繁榮的歷史年代，西元1997年由台北市政府評定後為三級古蹟。西元2002年紙風車文教基金會接手管理，擔負起重現往日風華的重責大任，2008年時再由台北市文教基金會承接，現今規劃有河岸留言展演館、月光電影院、創意市集、八角樓劇場、町西茶喫及露天咖啡座等區域，民眾可到此享用茶點小憩，河岸留言及劇場也會不定期邀請藝人及劇團前來演出。", :address=>"台北市萬華區成都路10號", :image=>"http://img3.okgo.tw/titlepic/b278_1.jpg", :region=>"萬華區", :lat=>25.0420652, :lng=>121.5069348, :categories=>["深度", "特色", "交通", "待分類"]}, 
